[
	{
		"id": "3039162",
		"name": "Sant Julià de Lòria",
		"latitude": 42.46247,
		"longitude": 1.48247,
		"featureClass": "A",
		"featureCode": "ADM1",
		"countryCode": "AD",
		"ADM1": "06",
		"ADM2": "",
		"ADM3": "",
		"ADM4": "",
		"population": 9448,
		"parentId": "3041565"
	},
	{
		"id": "3039676",
		"name": "Ordino",
		"latitude": 42.59758,
		"longitude": 1.52573,
		"featureClass": "A",
		"featureCode": "ADM1",
		"countryCode": "AD",
		"ADM1": "05",
		"ADM2": "",
		"ADM3": "",
		"ADM4": "",
		"population": 4858,
		"parentId": "3041565"
	},
	{
		"id": "3040131",
		"name": "La Massana",
		"latitude": 42.55417,
		"longitude": 1.48333,
		"featureClass": "A",
		"featureCode": "ADM1",
		"countryCode": "AD",
		"ADM1": "04",
		"ADM2": "",
		"ADM3": "",
		"ADM4": "",
		"population": 8953,
		"parentId": "3041565"
	},
	{
		"id": "3040684",
		"name": "Encamp",
		"latitude": 42.53333,
		"longitude": 1.63333,
		"featureClass": "A",
		"featureCode": "ADM1",
		"countryCode": "AD",
		"ADM1": "03",
		"ADM2": "",
		"ADM3": "",
		"ADM4": "",
		"population": 13685,
		"parentId": "3041565"
	},
	{
		"id": "3041203",
		"name": "Canillo",
		"latitude": 42.58333,
		"longitude": 1.65833,
		"featureClass": "A",
		"featureCode": "ADM1",
		"countryCode": "AD",
		"ADM1": "02",
		"ADM2": "",
		"ADM3": "",
		"ADM4": "",
		"population": 5067,
		"parentId": "3041565"
	},
	{
		"id": "3041566",
		"name": "Andorra la Vella",
		"latitude": 42.5045,
		"longitude": 1.49414,
		"featureClass": "A",
		"featureCode": "ADM1",
		"countryCode": "AD",
		"ADM1": "07",
		"ADM2": "",
		"ADM3": "",
		"ADM4": "",
		"population": 24211,
		"parentId": "3041565"
	},
	{
		"id": "3338529",
		"name": "Escaldes-Engordany",
		"latitude": 42.5,
		"longitude": 1.56667,
		"featureClass": "A",
		"featureCode": "ADM1",
		"countryCode": "AD",
		"ADM1": "08",
		"ADM2": "",
		"ADM3": "",
		"ADM4": "",
		"population": 16391,
		"parentId": "3041565"
	},
	{
		"id": "290595",
		"name": "Imārat Umm al Qaywayn",
		"latitude": 25.5,
		"longitude": 55.75,
		"featureClass": "A",
		"featureCode": "ADM1",
		"countryCode": "AE",
		"ADM1": "07",
		"ADM2": "",
		"ADM3": "",
		"ADM4": "",
		"population": 44411,
		"parentId": "290557"
	},
	{
		"id": "291075",
		"name": "Imārat Ra’s al Khaymah",
		"latitude": 25.66667,
		"longitude": 56,
		"featureClass": "A",
		"featureCode": "ADM1",
		"countryCode": "AE",
		"ADM1": "05",
		"ADM2": "",
		"ADM3": "",
		"ADM4": "",
		"population": 187535,
		"parentId": "290557"
	},
	{
		"id": "292224",
		"name": "Dubai",
		"latitude": 25,
		"longitude": 55.33333,
		"featureClass": "A",
		"featureCode": "ADM1",
		"countryCode": "AE",
		"ADM1": "03",
		"ADM2": "",
		"ADM3": "",
		"ADM4": "",
		"population": 3515813,
		"parentId": "290557"
	},
	{
		"id": "292673",
		"name": "Ash Shāriqah",
		"latitude": 25.31763,
		"longitude": 55.44057,
		"featureClass": "A",
		"featureCode": "ADM1",
		"countryCode": "AE",
		"ADM1": "06",
		"ADM2": "",
		"ADM3": "",
		"ADM4": "",
		"population": 2374132,
		"parentId": "290557"
	},
	{
		"id": "292879",
		"name": "Imārat al Fujayrah",
		"latitude": 25.13333,
		"longitude": 56.25,
		"featureClass": "A",
		"featureCode": "ADM1",
		"countryCode": "AE",
		"ADM1": "04",
		"ADM2": "",
		"ADM3": "",
		"ADM4": "",
		"population": 97226,
		"parentId": "290557"
	},
	{
		"id": "292933",
		"name": "Imārat ‘Ajmān",
		"latitude": 25.38333,
		"longitude": 55.51667,
		"featureClass": "A",
		"featureCode": "ADM1",
		"countryCode": "AE",
		"ADM1": "02",
		"ADM2": "",
		"ADM3": "",
		"ADM4": "",
		"population": 490035,
		"parentId": "290557"
	},
	{
		"id": "292969",
		"name": "Abu Dhabi",
		"latitude": 23.66667,
		"longitude": 54,
		"featureClass": "A",
		"featureCode": "ADM1",
		"countryCode": "AE",
		"ADM1": "01",
		"ADM2": "",
		"ADM3": "",
		"ADM4": "",
		"population": 2784490,
		"parentId": "290557"
	},
	{
		"id": "1121143",
		"name": "Wilāyat-e Zābul",
		"latitude": 32.25,
		"longitude": 67.25,
		"featureClass": "A",
		"featureCode": "ADM1",
		"countryCode": "AF",
		"ADM1": "28",
		"ADM2": "",
		"ADM3": "",
		"ADM4": "",
		"population": 391150,
		"parentId": "1149361"
	},
	{
		"id": "1121863",
		"name": "Wardak",
		"latitude": 34.25,
		"longitude": 68,
		"featureClass": "A",
		"featureCode": "ADM1",
		"countryCode": "AF",
		"ADM1": "27",
		"ADM2": "",
		"ADM3": "",
		"ADM4": "",
		"population": 671817,
		"parentId": "1149361"
	},
	{
		"id": "1123230",
		"name": "Wilāyat-e Takhār",
		"latitude": 36.66667,
		"longitude": 69.75,
		"featureClass": "A",
		"featureCode": "ADM1",
		"countryCode": "AF",
		"ADM1": "26",
		"ADM2": "",
		"ADM3": "",
		"ADM4": "",
		"population": 1113173,
		"parentId": "1149361"
	},
	{
		"id": "1127106",
		"name": "Sar-e Pul",
		"latitude": 35.83333,
		"longitude": 66.16667,
		"featureClass": "A",
		"featureCode": "ADM1",
		"countryCode": "AF",
		"ADM1": "33",
		"ADM2": "",
		"ADM3": "",
		"ADM4": "",
		"population": 632182,
		"parentId": "1149361"
	},
	{
		"id": "1127766",
		"name": "Samangān",
		"latitude": 36,
		"longitude": 67.66667,
		"featureClass": "A",
		"featureCode": "ADM1",
		"countryCode": "AF",
		"ADM1": "32",
		"ADM2": "",
		"ADM3": "",
		"ADM4": "",
		"population": 438235,
		"parentId": "1149361"
	},
	{
		"id": "1131054",
		"name": "Parwān",
		"latitude": 35,
		"longitude": 68.91667,
		"featureClass": "A",
		"featureCode": "ADM1",
		"countryCode": "AF",
		"ADM1": "40",
		"ADM2": "",
		"ADM3": "",
		"ADM4": "",
		"population": 751040,
		"parentId": "1149361"
	},
	{
		"id": "1131256",
		"name": "Wilāyat-e Paktīkā",
		"latitude": 32.41667,
		"longitude": 68.75,
		"featureClass": "A",
		"featureCode": "ADM1",
		"countryCode": "AF",
		"ADM1": "29",
		"ADM2": "",
		"ADM3": "",
		"ADM4": "",
		"population": 789079,
		"parentId": "1149361"
	},
	{
		"id": "1131257",
		"name": "Wilāyat-e Paktiyā",
		"latitude": 33.66667,
		"longitude": 69.33333,
		"featureClass": "A",
		"featureCode": "ADM1",
		"countryCode": "AF",
		"ADM1": "36",
		"ADM2": "",
		"ADM3": "",
		"ADM4": "",
		"population": 622831,
		"parentId": "1149361"
	},
	{
		"id": "1131461",
		"name": "Uruzgān",
		"latitude": 32.83333,
		"longitude": 66,
		"featureClass": "A",
		"featureCode": "ADM1",
		"countryCode": "AF",
		"ADM1": "39",
		"ADM2": "",
		"ADM3": "",
		"ADM4": "",
		"population": 436079,
		"parentId": "1149361"
	},
	{
		"id": "1131821",
		"name": "Wilāyat-e Nīmrōz",
		"latitude": 31,
		"longitude": 62.5,
		"featureClass": "A",
		"featureCode": "ADM1",
		"countryCode": "AF",
		"ADM1": "19",
		"ADM2": "",
		"ADM3": "",
		"ADM4": "",
		"population": 186963,
		"parentId": "1149361"
	},
	{
		"id": "1132366",
		"name": "Nangarhār",
		"latitude": 34.33333,
		"longitude": 70.41667,
		"featureClass": "A",
		"featureCode": "ADM1",
		"countryCode": "AF",
		"ADM1": "18",
		"ADM2": "",
		"ADM3": "",
		"ADM4": "",
		"population": 1735531,
		"parentId": "1149361"
	},
	{
		"id": "1134561",
		"name": "Wilāyat-e Lōgar",
		"latitude": 34,
		"longitude": 69.25,
		"featureClass": "A",
		"featureCode": "ADM1",
		"countryCode": "AF",
		"ADM1": "17",
		"ADM2": "",
		"ADM3": "",
		"ADM4": "",
		"population": 442037,
		"parentId": "1149361"
	},
	{
		"id": "1135022",
		"name": "Wilāyat-e Laghmān",
		"latitude": 34.78333,
		"longitude": 70.18333,
		"featureClass": "A",
		"featureCode": "ADM1",
		"countryCode": "AF",
		"ADM1": "35",
		"ADM2": "",
		"ADM3": "",
		"ADM4": "",
		"population": 442037,
		"parentId": "1149361"
	},
	{
		"id": "1135690",
		"name": "Kunduz",
		"latitude": 36.75,
		"longitude": 68.75,
		"featureClass": "A",
		"featureCode": "ADM1",
		"countryCode": "AF",
		"ADM1": "24",
		"ADM2": "",
		"ADM3": "",
		"ADM4": "",
		"population": 1136677,
		"parentId": "1149361"
	},
	{
		"id": "1135702",
		"name": "Wilāyat-e Kunaṟ",
		"latitude": 34.95,
		"longitude": 71.13333,
		"featureClass": "A",
		"featureCode": "ADM1",
		"countryCode": "AF",
		"ADM1": "34",
		"ADM2": "",
		"ADM3": "",
		"ADM4": "",
		"population": 508224,
		"parentId": "1149361"
	},
	{
		"id": "1138255",
		"name": "Wilāyat-e Kāpīsā",
		"latitude": 35,
		"longitude": 69.58333,
		"featureClass": "A",
		"featureCode": "ADM1",
		"countryCode": "AF",
		"ADM1": "14",
		"ADM2": "",
		"ADM3": "",
		"ADM4": "",
		"population": 496840,
		"parentId": "1149361"
	},
	{
		"id": "1138335",
		"name": "Kandahār",
		"latitude": 31,
		"longitude": 65.75,
		"featureClass": "A",
		"featureCode": "ADM1",
		"countryCode": "AF",
		"ADM1": "23",
		"ADM2": "",
		"ADM3": "",
		"ADM4": "",
		"population": 1431876,
		"parentId": "1149361"
	},
	{
		"id": "1138957",
		"name": "Wilāyat-e Kābul",
		"latitude": 34.5,
		"longitude": 69.41667,
		"featureClass": "A",
		"featureCode": "ADM1",
		"countryCode": "AF",
		"ADM1": "13",
		"ADM2": "",
		"ADM3": "",
		"ADM4": "",
		"population": 5385526,
		"parentId": "1149361"
	},
	{
		"id": "1139049",
		"name": "Wilāyat-e Jowzjān",
		"latitude": 36.83333,
		"longitude": 65.83333,
		"featureClass": "A",
		"featureCode": "ADM1",
		"countryCode": "AF",
		"ADM1": "31",
		"ADM2": "",
		"ADM3": "",
		"ADM4": "",
		"population": 613481,
		"parentId": "1149361"
	},
	{
		"id": "1140025",
		"name": "Herāt",
		"latitude": 34.5,
		"longitude": 62,
		"featureClass": "A",
		"featureCode": "ADM1",
		"countryCode": "AF",
		"ADM1": "11",
		"ADM2": "",
		"ADM3": "",
		"ADM4": "",
		"population": 3780000,
		"parentId": "1149361"
	},
	{
		"id": "1140043",
		"name": "Helmand",
		"latitude": 31,
		"longitude": 64,
		"featureClass": "A",
		"featureCode": "ADM1",
		"countryCode": "AF",
		"ADM1": "10",
		"ADM2": "",
		"ADM3": "",
		"ADM4": "",
		"population": 1472162,
		"parentId": "1149361"
	},
	{
		"id": "1141103",
		"name": "Wilāyat-e Ghōr",
		"latitude": 34,
		"longitude": 65,
		"featureClass": "A",
		"featureCode": "ADM1",
		"countryCode": "AF",
		"ADM1": "09",
		"ADM2": "",
		"ADM3": "",
		"ADM4": "",
		"population": 777882,
		"parentId": "1149361"
	},
	{
		"id": "1141268",
		"name": "Wilāyat-e Ghaznī",
		"latitude": 33.33333,
		"longitude": 67.75,
		"featureClass": "A",
		"featureCode": "ADM1",
		"countryCode": "AF",
		"ADM1": "08",
		"ADM2": "",
		"ADM3": "",
		"ADM4": "",
		"population": 1386764,
		"parentId": "1149361"
	},
	{
		"id": "1142226",
		"name": "Faryab Province",
		"latitude": 36.25,
		"longitude": 64.83333,
		"featureClass": "A",
		"featureCode": "ADM1",
		"countryCode": "AF",
		"ADM1": "07",
		"ADM2": "",
		"ADM3": "",
		"ADM4": "",
		"population": 1129528,
		"parentId": "1149361"
	},
	{
		"id": "1142263",
		"name": "Farāh",
		"latitude": 32.5,
		"longitude": 62.5,
		"featureClass": "A",
		"featureCode": "ADM1",
		"countryCode": "AF",
		"ADM1": "06",
		"ADM2": "",
		"ADM3": "",
		"ADM4": "",
		"population": 573146,
		"parentId": "1149361"
	},
	{
		"id": "1147239",
		"name": "Wilāyat-e Bāmyān",
		"latitude": 34.75,
		"longitude": 67.25,
		"featureClass": "A",
		"featureCode": "ADM1",
		"countryCode": "AF",
		"ADM1": "05",
		"ADM2": "",
		"ADM3": "",
		"ADM4": "",
		"population": 504312,
		"parentId": "1149361"
	},
	{
		"id": "1147288",
		"name": "Balkh",
		"latitude": 36.75,
		"longitude": 67,
		"featureClass": "A",
		"featureCode": "ADM1",
		"countryCode": "AF",
		"ADM1": "30",
		"ADM2": "",
		"ADM3": "",
		"ADM4": "",
		"population": 1245100,
		"parentId": "1149361"
	},
	{
		"id": "1147537",
		"name": "Wilāyat-e Baghlān",
		"latitude": 35.75,
		"longitude": 69,
		"featureClass": "A",
		"featureCode": "ADM1",
		"countryCode": "AF",
		"ADM1": "03",
		"ADM2": "",
		"ADM3": "",
		"ADM4": "",
		"population": 1033760,
		"parentId": "1149361"
	},
	{
		"id": "1147707",
		"name": "Bādghīs",
		"latitude": 35,
		"longitude": 63.75,
		"featureClass": "A",
		"featureCode": "ADM1",
		"countryCode": "AF",
		"ADM1": "02",
		"ADM2": "",
		"ADM3": "",
		"ADM4": "",
		"population": 559297,
		"parentId": "1149361"
	},
	{
		"id": "1147745",
		"name": "Badakhshān",
		"latitude": 36.75,
		"longitude": 72,
		"featureClass": "A",
		"featureCode": "ADM1",
		"countryCode": "AF",
		"ADM1": "01",
		"ADM2": "",
		"ADM3": "",
		"ADM4": "",
		"population": 1072785,
		"parentId": "1149361"
	},
	{
		"id": "1444362",
		"name": "Velāyat-e Khowst",
		"latitude": 33.38333,
		"longitude": 69.88333,
		"featureClass": "A",
		"featureCode": "ADM1",
		"countryCode": "AF",
		"ADM1": "37",
		"ADM2": "",
		"ADM3": "",
		"ADM4": "",
		"population": 647730,
		"parentId": "1149361"
	},
	{
		"id": "1444363",
		"name": "Velāyat-e Nūrestān",
		"latitude": 35.3,
		"longitude": 70.83333,
		"featureClass": "A",
		"featureCode": "ADM1",
		"countryCode": "AF",
		"ADM1": "38",
		"ADM2": "",
		"ADM3": "",
		"ADM4": "",
		"population": 166676,
		"parentId": "1149361"
	},
	{
		"id": "6957553",
		"name": "Daykundi Province",
		"latitude": 33.75,
		"longitude": 66.25,
		"featureClass": "A",
		"featureCode": "ADM1",
		"countryCode": "AF",
		"ADM1": "41",
		"ADM2": "",
		"ADM3": "",
		"ADM4": "",
		"population": 525529,
		"parentId": "1149361"
	},
	{
		"id": "6957555",
		"name": "Panjshir",
		"latitude": 35.40248,
		"longitude": 69.98291,
		"featureClass": "A",
		"featureCode": "ADM1",
		"countryCode": "AF",
		"ADM1": "42",
		"ADM2": "",
		"ADM3": "",
		"ADM4": "",
		"population": 172895,
		"parentId": "1149361"
	},
	{
		"id": "3576015",
		"name": "Parish of Saint Philip",
		"latitude": 17.05,
		"longitude": -61.71667,
		"featureClass": "A",
		"featureCode": "ADM1",
		"countryCode": "AG",
		"ADM1": "08",
		"ADM2": "",
		"ADM3": "",
		"ADM4": "",
		"population": 3689,
		"parentId": "3576396"
	},
	{
		"id": "3576016",
		"name": "Parish of Saint Peter",
		"latitude": 17.08925,
		"longitude": -61.74819,
		"featureClass": "A",
		"featureCode": "ADM1",
		"countryCode": "AG",
		"ADM1": "07",
		"ADM2": "",
		"ADM3": "",
		"ADM4": "",
		"population": 4321,
		"parentId": "3576396"
	},
	{
		"id": "3576017",
		"name": "Parish of Saint Paul",
		"latitude": 17.03333,
		"longitude": -61.76667,
		"featureClass": "A",
		"featureCode": "ADM1",
		"countryCode": "AG",
		"ADM1": "06",
		"ADM2": "",
		"ADM3": "",
		"ADM4": "",
		"population": 9004,
		"parentId": "3576396"
	},
	{
		"id": "3576018",
		"name": "Parish of Saint Mary",
		"latitude": 17.05,
		"longitude": -61.85,
		"featureClass": "A",
		"featureCode": "ADM1",
		"countryCode": "AG",
		"ADM1": "05",
		"ADM2": "",
		"ADM3": "",
		"ADM4": "",
		"population": 8141,
		"parentId": "3576396"
	},
	{
		"id": "3576023",
		"name": "Parish of Saint John",
		"latitude": 17.1,
		"longitude": -61.85,
		"featureClass": "A",
		"featureCode": "ADM1",
		"countryCode": "AG",
		"ADM1": "04",
		"ADM2": "",
		"ADM3": "",
		"ADM4": "",
		"population": 56736,
		"parentId": "3576396"
	},
	{
		"id": "3576024",
		"name": "Parish of Saint George",
		"latitude": 17.1227,
		"longitude": -61.79679,
		"featureClass": "A",
		"featureCode": "ADM1",
		"countryCode": "AG",
		"ADM1": "03",
		"ADM2": "",
		"ADM3": "",
		"ADM4": "",
		"population": 8817,
		"parentId": "3576396"
	},
	{
		"id": "3576037",
		"name": "Redonda",
		"latitude": 16.93889,
		"longitude": -62.34556,
		"featureClass": "A",
		"featureCode": "ADM1",
		"countryCode": "AG",
		"ADM1": "09",
		"ADM2": "",
		"ADM3": "",
		"ADM4": "",
		"population": 0,
		"parentId": "3576396"
	},
	{
		"id": "3576390",
		"name": "Barbuda",
		"latitude": 17.63333,
		"longitude": -61.8,
		"featureClass": "A",
		"featureCode": "ADM1",
		"countryCode": "AG",
		"ADM1": "01",
		"ADM2": "",
		"ADM3": "",
		"ADM4": "",
		"population": 1638,
		"parentId": "3576396"
	},
	{
		"id": "865730",
		"name": "Qarku i Beratit",
		"latitude": 40.63333,
		"longitude": 20.08333,
		"featureClass": "A",
		"featureCode": "ADM1",
		"countryCode": "AL",
		"ADM1": "40",
		"ADM2": "",
		"ADM3": "",
		"ADM4": "",
		"population": 119450,
		"parentId": "783754"
	},
	{
		"id": "865731",
		"name": "Qarku i Dibrës",
		"latitude": 41.6,
		"longitude": 20.23333,
		"featureClass": "A",
		"featureCode": "ADM1",
		"countryCode": "AL",
		"ADM1": "41",
		"ADM2": "",
		"ADM3": "",
		"ADM4": "",
		"population": 113683,
		"parentId": "783754"
	},
	{
		"id": "865732",
		"name": "Qarku i Elbasanit",
		"latitude": 41.06667,
		"longitude": 20.2,
		"featureClass": "A",
		"featureCode": "ADM1",
		"countryCode": "AL",
		"ADM1": "43",
		"ADM2": "",
		"ADM3": "",
		"ADM4": "",
		"population": 266245,
		"parentId": "783754"
	},
	{
		"id": "865733",
		"name": "Qarku i Gjirokastrës",
		"latitude": 40.21667,
		"longitude": 20.2,
		"featureClass": "A",
		"featureCode": "ADM1",
		"countryCode": "AL",
		"ADM1": "45",
		"ADM2": "",
		"ADM3": "",
		"ADM4": "",
		"population": 72000,
		"parentId": "783754"
	},
	{
		"id": "865734",
		"name": "Qarku i Korçës",
		"latitude": 40.61667,
		"longitude": 20.66667,
		"featureClass": "A",
		"featureCode": "ADM1",
		"countryCode": "AL",
		"ADM1": "46",
		"ADM2": "",
		"ADM3": "",
		"ADM4": "",
		"population": 202193,
		"parentId": "783754"
	},
	{
		"id": "865735",
		"name": "Qarku i Kukësit",
		"latitude": 42.2,
		"longitude": 20.36667,
		"featureClass": "A",
		"featureCode": "ADM1",
		"countryCode": "AL",
		"ADM1": "47",
		"ADM2": "",
		"ADM3": "",
		"ADM4": "",
		"population": 74388,
		"parentId": "783754"
	},
	{
		"id": "3344947",
		"name": "Qarku i Durrësit",
		"latitude": 41.48333,
		"longitude": 19.61667,
		"featureClass": "A",
		"featureCode": "ADM1",
		"countryCode": "AL",
		"ADM1": "42",
		"ADM2": "",
		"ADM3": "",
		"ADM4": "",
		"population": 292029,
		"parentId": "783754"
	},
	{
		"id": "3344948",
		"name": "Qarku i Fierit",
		"latitude": 40.76667,
		"longitude": 19.61667,
		"featureClass": "A",
		"featureCode": "ADM1",
		"countryCode": "AL",
		"ADM1": "44",
		"ADM2": "",
		"ADM3": "",
		"ADM4": "",
		"population": 286002,
		"parentId": "783754"
	},
	{
		"id": "3344949",
		"name": "Qarku i Lezhës",
		"latitude": 41.8,
		"longitude": 19.86667,
		"featureClass": "A",
		"featureCode": "ADM1",
		"countryCode": "AL",
		"ADM1": "48",
		"ADM2": "",
		"ADM3": "",
		"ADM4": "",
		"population": 120678,
		"parentId": "783754"
	},
	{
		"id": "3344950",
		"name": "Qarku i Shkodrës",
		"latitude": 42.18333,
		"longitude": 19.75,
		"featureClass": "A",
		"featureCode": "ADM1",
		"countryCode": "AL",
		"ADM1": "49",
		"ADM2": "",
		"ADM3": "",
		"ADM4": "",
		"population": 197177,
		"parentId": "783754"
	},
	{
		"id": "3344951",
		"name": "Tirana",
		"latitude": 41.26667,
		"longitude": 19.78333,
		"featureClass": "A",
		"featureCode": "ADM1",
		"countryCode": "AL",
		"ADM1": "50",
		"ADM2": "",
		"ADM3": "",
		"ADM4": "",
		"population": 912190,
		"parentId": "783754"
	},
	{
		"id": "3344952",
		"name": "Qarku i Vlorës",
		"latitude": 40.16667,
		"longitude": 19.8,
		"featureClass": "A",
		"featureCode": "ADM1",
		"countryCode": "AL",
		"ADM1": "51",
		"ADM2": "",
		"ADM3": "",
		"ADM4": "",
		"population": 187675,
		"parentId": "783754"
	},
	{
		"id": "409313",
		"name": "Ararati Marz",
		"latitude": 39.91667,
		"longitude": 44.83333,
		"featureClass": "A",
		"featureCode": "ADM1",
		"countryCode": "AM",
		"ADM1": "02",
		"ADM2": "",
		"ADM3": "",
		"ADM4": "",
		"population": 256700,
		"parentId": "174982"
	},
	{
		"id": "409314",
		"name": "Syunik’i Marz",
		"latitude": 39.33333,
		"longitude": 46.25,
		"featureClass": "A",
		"featureCode": "ADM1",
		"countryCode": "AM",
		"ADM1": "08",
		"ADM2": "",
		"ADM3": "",
		"ADM4": "",
		"population": 137600,
		"parentId": "174982"
	},
	{
		"id": "409315",
		"name": "Vayots’ Dzor",
		"latitude": 39.75,
		"longitude": 45.41667,
		"featureClass": "A",
		"featureCode": "ADM1",
		"countryCode": "AM",
		"ADM1": "10",
		"ADM2": "",
		"ADM3": "",
		"ADM4": "",
		"population": 48100,
		"parentId": "174982"
	},
	{
		"id": "616051",
		"name": "Yerevan",
		"latitude": 40.18333,
		"longitude": 44.5,
		"featureClass": "A",
		"featureCode": "ADM1",
		"countryCode": "AM",
		"ADM1": "11",
		"ADM2": "",
		"ADM3": "",
		"ADM4": "",
		"population": 1092800,
		"parentId": "174982"
	},
	{
		"id": "828259",
		"name": "Aragatsotni Marz",
		"latitude": 40.41667,
		"longitude": 44.16667,
		"featureClass": "A",
		"featureCode": "ADM1",
		"countryCode": "AM",
		"ADM1": "01",
		"ADM2": "",
		"ADM3": "",
		"ADM4": "",
		"population": 125400,
		"parentId": "174982"
	},
	{
		"id": "828260",
		"name": "Armaviri Marz",
		"latitude": 40.11667,
		"longitude": 44,
		"featureClass": "A",
		"featureCode": "ADM1",
		"countryCode": "AM",
		"ADM1": "03",
		"ADM2": "",
		"ADM3": "",
		"ADM4": "",
		"population": 263900,
		"parentId": "174982"
	},
	{
		"id": "828261",
		"name": "Geghark’unik’i Marz",
		"latitude": 40.25,
		"longitude": 45.41667,
		"featureClass": "A",
		"featureCode": "ADM1",
		"countryCode": "AM",
		"ADM1": "04",
		"ADM2": "",
		"ADM3": "",
		"ADM4": "",
		"population": 228300,
		"parentId": "174982"
	},
	{
		"id": "828262",
		"name": "Kotayk’i Marz",
		"latitude": 40.41667,
		"longitude": 44.75,
		"featureClass": "A",
		"featureCode": "ADM1",
		"countryCode": "AM",
		"ADM1": "05",
		"ADM2": "",
		"ADM3": "",
		"ADM4": "",
		"population": 251600,
		"parentId": "174982"
	},
	{
		"id": "828263",
		"name": "Lorru Marz",
		"latitude": 41,
		"longitude": 44.5,
		"featureClass": "A",
		"featureCode": "ADM1",
		"countryCode": "AM",
		"ADM1": "06",
		"ADM2": "",
		"ADM3": "",
		"ADM4": "",
		"population": 215500,
		"parentId": "174982"
	},
	{
		"id": "828264",
		"name": "Shiraki Marz",
		"latitude": 40.75,
		"longitude": 43.83333,
		"featureClass": "A",
		"featureCode": "ADM1",
		"countryCode": "AM",
		"ADM1": "07",
		"ADM2": "",
		"ADM3": "",
		"ADM4": "",
		"population": 233300,
		"parentId": "174982"
	},
	{
		"id": "828265",
		"name": "Tavushi Marz",
		"latitude": 40.91667,
		"longitude": 45.16667,
		"featureClass": "A",
		"featureCode": "ADM1",
		"countryCode": "AM",
		"ADM1": "09",
		"ADM2": "",
		"ADM3": "",
		"ADM4": "",
		"population": 122200,
		"parentId": "174982"
	},
	{
		"id": "145701",
		"name": "Lunda-Sul",
		"latitude": -10.25918,
		"longitude": 20.62489,
		"featureClass": "A",
		"featureCode": "ADM1",
		"countryCode": "AO",
		"ADM1": "18",
		"ADM2": "",
		"ADM3": "",
		"ADM4": "",
		"population": 516077,
		"parentId": "3351879"
	},
	{
		"id": "145702",
		"name": "Lunda Norte Province",
		"latitude": -8.63543,
		"longitude": 19.64852,
		"featureClass": "A",
		"featureCode": "ADM1",
		"countryCode": "AO",
		"ADM1": "17",
		"ADM2": "",
		"ADM3": "",
		"ADM4": "",
		"population": 799950,
		"parentId": "3351879"
	},
	{
		"id": "875996",
		"name": "Moxico",
		"latitude": -12.84869,
		"longitude": 20.93266,
		"featureClass": "A",
		"featureCode": "ADM1",
		"countryCode": "AO",
		"ADM1": "14",
		"ADM2": "",
		"ADM3": "",
		"ADM4": "",
		"population": 727594,
		"parentId": "3351879"
	},
	{
		"id": "876337",
		"name": "Cuando Cubango",
		"latitude": -15.94761,
		"longitude": 19.3832,
		"featureClass": "A",
		"featureCode": "ADM1",
		"countryCode": "AO",
		"ADM1": "04",
		"ADM2": "",
		"ADM3": "",
		"ADM4": "",
		"population": 130000,
		"parentId": "3351879"
	},
	{
		"id": "2236355",
		"name": "Zaire",
		"latitude": -6.58717,
		"longitude": 13.51966,
		"featureClass": "A",
		"featureCode": "ADM1",
		"countryCode": "AO",
		"ADM1": "16",
		"ADM2": "",
		"ADM3": "",
		"ADM4": "",
		"population": 567225,
		"parentId": "3351879"
	},
	{
		"id": "2236566",
		"name": "Província do Uíge",
		"latitude": -7.10719,
		"longitude": 15.44056,
		"featureClass": "A",
		"featureCode": "ADM1",
		"countryCode": "AO",
		"ADM1": "15",
		"ADM2": "",
		"ADM3": "",
		"ADM4": "",
		"population": 1426354,
		"parentId": "3351879"
	},
	{
		"id": "2239858",
		"name": "Malanje Province",
		"latitude": -9.67548,
		"longitude": 16.82553,
		"featureClass": "A",
		"featureCode": "ADM1",
		"countryCode": "AO",
		"ADM1": "12",
		"ADM2": "",
		"ADM3": "",
		"ADM4": "",
		"population": 968135,
		"parentId": "3351879"
	},
	{
		"id": "2240444",
		"name": "Luanda Province",
		"latitude": -8.91667,
		"longitude": 13.33924,
		"featureClass": "A",
		"featureCode": "ADM1",
		"countryCode": "AO",
		"ADM1": "20",
		"ADM2": "",
		"ADM3": "",
		"ADM4": "",
		"population": 6542942,
		"parentId": "3351879"
	},
	{
		"id": "2241660",
		"name": "Cuanza Norte Province",
		"latitude": -8.91136,
		"longitude": 14.8887,
		"featureClass": "A",
		"featureCode": "ADM1",
		"countryCode": "AO",
		"ADM1": "05",
		"ADM2": "",
		"ADM3": "",
		"ADM4": "",
		"population": 402357,
		"parentId": "3351879"
	},
	{
		"id": "2243266",
		"name": "Cabinda",
		"latitude": -4.93423,
		"longitude": 12.40532,
		"featureClass": "A",
		"featureCode": "ADM1",
		"countryCode": "AO",
		"ADM1": "03",
		"ADM2": "",
		"ADM3": "",
		"ADM4": "",
		"population": 688285,
		"parentId": "3351879"
	},
	{
		"id": "2243598",
		"name": "Bengo Province",
		"latitude": -8.97504,
		"longitude": 13.82743,
		"featureClass": "A",
		"featureCode": "ADM1",
		"countryCode": "AO",
		"ADM1": "19",
		"ADM2": "",
		"ADM3": "",
		"ADM4": "",
		"population": 351579,
		"parentId": "3351879"
	},
	{
		"id": "3347016",
		"name": "Namibe Province",
		"latitude": -15.33207,
		"longitude": 12.66002,
		"featureClass": "A",
		"featureCode": "ADM1",
		"countryCode": "AO",
		"ADM1": "13",
		"ADM2": "",
		"ADM3": "",
		"ADM4": "",
		"population": 471613,
		"parentId": "3351879"
	},
	{
		"id": "3348303",
		"name": "Huila Province",
		"latitude": -14.69531,
		"longitude": 15.00014,
		"featureClass": "A",
		"featureCode": "ADM1",
		"countryCode": "AO",
		"ADM1": "09",
		"ADM2": "",
		"ADM3": "",
		"ADM4": "",
		"population": 2354398,
		"parentId": "3351879"
	},
	{
		"id": "3348310",
		"name": "Huambo",
		"latitude": -12.5,
		"longitude": 15.66667,
		"featureClass": "A",
		"featureCode": "ADM1",
		"countryCode": "AO",
		"ADM1": "08",
		"ADM2": "",
		"ADM3": "",
		"ADM4": "",
		"population": 1896147,
		"parentId": "3351879"
	},
	{
		"id": "3349096",
		"name": "Cunene Province",
		"latitude": -16.51009,
		"longitude": 15.43526,
		"featureClass": "A",
		"featureCode": "ADM1",
		"countryCode": "AO",
		"ADM1": "07",
		"ADM2": "",
		"ADM3": "",
		"ADM4": "",
		"population": 965288,
		"parentId": "3351879"
	},
	{
		"id": "3349234",
		"name": "Cuanza-Sul",
		"latitude": -10.82696,
		"longitude": 15.03197,
		"featureClass": "A",
		"featureCode": "ADM1",
		"countryCode": "AO",
		"ADM1": "06",
		"ADM2": "",
		"ADM3": "",
		"ADM4": "",
		"population": 653121,
		"parentId": "3351879"
	},
	{
		"id": "3351640",
		"name": "Província do Bié",
		"latitude": -12.34989,
		"longitude": 17.3031,
		"featureClass": "A",
		"featureCode": "ADM1",
		"countryCode": "AO",
		"ADM1": "02",
		"ADM2": "",
		"ADM3": "",
		"ADM4": "",
		"population": 1338923,
		"parentId": "3351879"
	},
	{
		"id": "3351660",
		"name": "Benguela",
		"latitude": -12.85399,
		"longitude": 13.92825,
		"featureClass": "A",
		"featureCode": "ADM1",
		"countryCode": "AO",
		"ADM1": "01",
		"ADM2": "",
		"ADM3": "",
		"ADM4": "",
		"population": 2036662,
		"parentId": "3351879"
	},
	{
		"id": "3430657",
		"name": "Misiones Province",
		"latitude": -26.81427,
		"longitude": -54.34387,
		"featureClass": "A",
		"featureCode": "ADM1",
		"countryCode": "AR",
		"ADM1": "14",
		"ADM2": "",
		"ADM3": "",
		"ADM4": "",
		"population": 1280960,
		"parentId": "3865483"
	},
	{
		"id": "3433896",
		"name": "Formosa Province",
		"latitude": -25,
		"longitude": -60,
		"featureClass": "A",
		"featureCode": "ADM1",
		"countryCode": "AR",
		"ADM1": "09",
		"ADM2": "",
		"ADM3": "",
		"ADM4": "",
		"population": 606041,
		"parentId": "3865483"
	},
	{
		"id": "3433955",
		"name": "Ciudad Autónoma de Buenos Aires",
		"latitude": -34.6,
		"longitude": -58.45,
		"featureClass": "A",
		"featureCode": "ADM1",
		"countryCode": "AR",
		"ADM1": "07",
		"ADM2": "",
		"ADM3": "",
		"ADM4": "",
		"population": 2776138,
		"parentId": "3865483"
	},
	{
		"id": "3434137",
		"name": "Entre Ríos Province",
		"latitude": -32,
		"longitude": -59,
		"featureClass": "A",
		"featureCode": "ADM1",
		"countryCode": "AR",
		"ADM1": "08",
		"ADM2": "",
		"ADM3": "",
		"ADM4": "",
		"population": 1426426,
		"parentId": "3865483"
	},
	{
		"id": "3435214",
		"name": "Corrientes Province",
		"latitude": -29,
		"longitude": -58,
		"featureClass": "A",
		"featureCode": "ADM1",
		"countryCode": "AR",
		"ADM1": "06",
		"ADM2": "",
		"ADM3": "",
		"ADM4": "",
		"population": 1197553,
		"parentId": "3865483"
	},
	{
		"id": "3435907",
		"name": "Buenos Aires",
		"latitude": -36,
		"longitude": -60,
		"featureClass": "A",
		"featureCode": "ADM1",
		"countryCode": "AR",
		"ADM1": "01",
		"ADM2": "",
		"ADM3": "",
		"ADM4": "",
		"population": 17569053,
		"parentId": "3865483"
	},
	{
		"id": "3833578",
		"name": "Tucumán Province",
		"latitude": -27,
		"longitude": -65.5,
		"featureClass": "A",
		"featureCode": "ADM1",
		"countryCode": "AR",
		"ADM1": "24",
		"ADM2": "",
		"ADM3": "",
		"ADM4": "",
		"population": 1703186,
		"parentId": "3865483"
	},
	{
		"id": "3834450",
		"name": "Tierra del Fuego Province",
		"latitude": -54.5,
		"longitude": -67,
		"featureClass": "A",
		"featureCode": "ADM1",
		"countryCode": "AR",
		"ADM1": "23",
		"ADM2": "",
		"ADM3": "",
		"ADM4": "",
		"population": 190641,
		"parentId": "3865483"
	},
	{
		"id": "3835868",
		"name": "Santiago del Estero Province",
		"latitude": -28,
		"longitude": -63.5,
		"featureClass": "A",
		"featureCode": "ADM1",
		"countryCode": "AR",
		"ADM1": "22",
		"ADM2": "",
		"ADM3": "",
		"ADM4": "",
		"population": 1054028,
		"parentId": "3865483"
	},
	{
		"id": "3836276",
		"name": "Santa Fe Province",
		"latitude": -31,
		"longitude": -61,
		"featureClass": "A",
		"featureCode": "ADM1",
		"countryCode": "AR",
		"ADM1": "21",
		"ADM2": "",
		"ADM3": "",
		"ADM4": "",
		"population": 3556522,
		"parentId": "3865483"
	},
	{
		"id": "3836350",
		"name": "Santa Cruz Province",
		"latitude": -49,
		"longitude": -70,
		"featureClass": "A",
		"featureCode": "ADM1",
		"countryCode": "AR",
		"ADM1": "20",
		"ADM2": "",
		"ADM3": "",
		"ADM4": "",
		"population": 333473,
		"parentId": "3865483"
	},
	{
		"id": "3837029",
		"name": "San Luis Province",
		"latitude": -34,
		"longitude": -66,
		"featureClass": "A",
		"featureCode": "ADM1",
		"countryCode": "AR",
		"ADM1": "19",
		"ADM2": "",
		"ADM3": "",
		"ADM4": "",
		"population": 540905,
		"parentId": "3865483"
	},
	{
		"id": "3837152",
		"name": "San Juan Province",
		"latitude": -31,
		"longitude": -69,
		"featureClass": "A",
		"featureCode": "ADM1",
		"countryCode": "AR",
		"ADM1": "18",
		"ADM2": "",
		"ADM3": "",
		"ADM4": "",
		"population": 818234,
		"parentId": "3865483"
	},
	{
		"id": "3838231",
		"name": "Salta Province",
		"latitude": -24.75806,
		"longitude": -65.43457,
		"featureClass": "A",
		"featureCode": "ADM1",
		"countryCode": "AR",
		"ADM1": "17",
		"ADM2": "",
		"ADM3": "",
		"ADM4": "",
		"population": 1440672,
		"parentId": "3865483"
	},
	{
		"id": "3838830",
		"name": "Río Negro Province",
		"latitude": -40,
		"longitude": -67,
		"featureClass": "A",
		"featureCode": "ADM1",
		"countryCode": "AR",
		"ADM1": "16",
		"ADM2": "",
		"ADM3": "",
		"ADM4": "",
		"population": 762067,
		"parentId": "3865483"
	},
	{
		"id": "3843122",
		"name": "Neuquén Province",
		"latitude": -39,
		"longitude": -70,
		"featureClass": "A",
		"featureCode": "ADM1",
		"countryCode": "AR",
		"ADM1": "15",
		"ADM2": "",
		"ADM3": "",
		"ADM4": "",
		"population": 726590,
		"parentId": "3865483"
	},
	{
		"id": "3844419",
		"name": "Mendoza Province",
		"latitude": -34.5,
		"longitude": -68.5,
		"featureClass": "A",
		"featureCode": "ADM1",
		"countryCode": "AR",
		"ADM1": "13",
		"ADM2": "",
		"ADM3": "",
		"ADM4": "",
		"population": 2014533,
		"parentId": "3865483"
	},
	{
		"id": "3848949",
		"name": "La Rioja Province",
		"latitude": -29.58333,
		"longitude": -67,
		"featureClass": "A",
		"featureCode": "ADM1",
		"countryCode": "AR",
		"ADM1": "12",
		"ADM2": "",
		"ADM3": "",
		"ADM4": "",
		"population": 384607,
		"parentId": "3865483"
	},
	{
		"id": "3849574",
		"name": "La Pampa Province",
		"latitude": -37,
		"longitude": -66,
		"featureClass": "A",
		"featureCode": "ADM1",
		"countryCode": "AR",
		"ADM1": "11",
		"ADM2": "",
		"ADM3": "",
		"ADM4": "",
		"population": 366022,
		"parentId": "3865483"
	},
	{
		"id": "3853404",
		"name": "Jujuy Province",
		"latitude": -23,
		"longitude": -66,
		"featureClass": "A",
		"featureCode": "ADM1",
		"countryCode": "AR",
		"ADM1": "10",
		"ADM2": "",
		"ADM3": "",
		"ADM4": "",
		"population": 797955,
		"parentId": "3865483"
	},
	{
		"id": "3860255",
		"name": "Córdoba Province",
		"latitude": -32,
		"longitude": -64,
		"featureClass": "A",
		"featureCode": "ADM1",
		"countryCode": "AR",
		"ADM1": "05",
		"ADM2": "",
		"ADM3": "",
		"ADM4": "",
		"population": 3978984,
		"parentId": "3865483"
	},
	{
		"id": "3861244",
		"name": "Chubut Province",
		"latitude": -44,
		"longitude": -69,
		"featureClass": "A",
		"featureCode": "ADM1",
		"countryCode": "AR",
		"ADM1": "04",
		"ADM2": "",
		"ADM3": "",
		"ADM4": "",
		"population": 603120,
		"parentId": "3865483"
	},
	{
		"id": "3861887",
		"name": "Chaco Province",
		"latitude": -26.33333,
		"longitude": -60.5,
		"featureClass": "A",
		"featureCode": "ADM1",
		"countryCode": "AR",
		"ADM1": "03",
		"ADM2": "",
		"ADM3": "",
		"ADM4": "",
		"population": 984446,
		"parentId": "3865483"
	},
	{
		"id": "3862286",
		"name": "Catamarca Province",
		"latitude": -27,
		"longitude": -67,
		"featureClass": "A",
		"featureCode": "ADM1",
		"countryCode": "AR",
		"ADM1": "02",
		"ADM2": "",
		"ADM3": "",
		"ADM4": "",
		"population": 429556,
		"parentId": "3865483"
	},
	{
		"id": "2761367",
		"name": "Wien",
		"latitude": 48.2082,
		"longitude": 16.37169,
		"featureClass": "A",
		"featureCode": "ADM1",
		"countryCode": "AT",
		"ADM1": "09",
		"ADM2": "",
		"ADM3": "",
		"ADM4": "",
		"population": 1951354,
		"parentId": "2782113"
	},
	{
		"id": "2762300",
		"name": "Vorarlberg",
		"latitude": 47.25,
		"longitude": 9.91667,
		"featureClass": "A",
		"featureCode": "ADM1",
		"countryCode": "AT",
		"ADM1": "08",
		"ADM2": "",
		"ADM3": "",
		"ADM4": "",
		"population": 401674,
		"parentId": "2782113"
	},
	{
		"id": "2763586",
		"name": "Tirol",
		"latitude": 47.25,
		"longitude": 11.33333,
		"featureClass": "A",
		"featureCode": "ADM1",
		"countryCode": "AT",
		"ADM1": "07",
		"ADM2": "",
		"ADM3": "",
		"ADM4": "",
		"population": 764102,
		"parentId": "2782113"
	},
	{
		"id": "2764581",
		"name": "Steiermark",
		"latitude": 47.25,
		"longitude": 15.16667,
		"featureClass": "A",
		"featureCode": "ADM1",
		"countryCode": "AT",
		"ADM1": "06",
		"ADM2": "",
		"ADM3": "",
		"ADM4": "",
		"population": 1252922,
		"parentId": "2782113"
	},
	{
		"id": "2766823",
		"name": "Salzburg",
		"latitude": 47.41667,
		"longitude": 13.25,
		"featureClass": "A",
		"featureCode": "ADM1",
		"countryCode": "AT",
		"ADM1": "05",
		"ADM2": "",
		"ADM3": "",
		"ADM4": "",
		"population": 562606,
		"parentId": "2782113"
	},
	{
		"id": "2769848",
		"name": "Oberösterreich",
		"latitude": 48.25,
		"longitude": 14,
		"featureClass": "A",
		"featureCode": "ADM1",
		"countryCode": "AT",
		"ADM1": "04",
		"ADM2": "",
		"ADM3": "",
		"ADM4": "",
		"population": 1505140,
		"parentId": "2782113"
	},
	{
		"id": "2770542",
		"name": "Niederösterreich",
		"latitude": 48.33333,
		"longitude": 15.75,
		"featureClass": "A",
		"featureCode": "ADM1",
		"countryCode": "AT",
		"ADM1": "03",
		"ADM2": "",
		"ADM3": "",
		"ADM4": "",
		"population": 1698796,
		"parentId": "2782113"
	},
	{
		"id": "2774686",
		"name": "Kärnten",
		"latitude": 46.75,
		"longitude": 13.83333,
		"featureClass": "A",
		"featureCode": "ADM1",
		"countryCode": "AT",
		"ADM1": "02",
		"ADM2": "",
		"ADM3": "",
		"ADM4": "",
		"population": 564513,
		"parentId": "2782113"
	},
	{
		"id": "2781194",
		"name": "Burgenland",
		"latitude": 47.5,
		"longitude": 16.41667,
		"featureClass": "A",
		"featureCode": "ADM1",
		"countryCode": "AT",
		"ADM1": "01",
		"ADM2": "",
		"ADM3": "",
		"ADM4": "",
		"population": 297583,
		"parentId": "2782113"
	},
	{
		"id": "2058645",
		"name": "State of Western Australia",
		"latitude": -25,
		"longitude": 122,
		"featureClass": "A",
		"featureCode": "ADM1",
		"countryCode": "AU",
		"ADM1": "08",
		"ADM2": "",
		"ADM3": "",
		"ADM4": "",
		"population": 2773400,
		"parentId": "2077456"
	},
	{
		"id": "2061327",
		"name": "State of South Australia",
		"latitude": -30,
		"longitude": 135,
		"featureClass": "A",
		"featureCode": "ADM1",
		"countryCode": "AU",
		"ADM1": "05",
		"ADM2": "",
		"ADM3": "",
		"ADM4": "",
		"population": 1815485,
		"parentId": "2077456"
	},
	{
		"id": "2064513",
		"name": "Northern Territory",
		"latitude": -20,
		"longitude": 134,
		"featureClass": "A",
		"featureCode": "ADM1",
		"countryCode": "AU",
		"ADM1": "03",
		"ADM2": "",
		"ADM3": "",
		"ADM4": "",
		"population": 249345,
		"parentId": "2077456"
	},
	{
		"id": "2145234",
		"name": "State of Victoria",
		"latitude": -37,
		"longitude": 145,
		"featureClass": "A",
		"featureCode": "ADM1",
		"countryCode": "AU",
		"ADM1": "07",
		"ADM2": "",
		"ADM3": "",
		"ADM4": "",
		"population": 6613700,
		"parentId": "2077456"
	},
	{
		"id": "2147291",
		"name": "State of Tasmania",
		"latitude": -42,
		"longitude": 147,
		"featureClass": "A",
		"featureCode": "ADM1",
		"countryCode": "AU",
		"ADM1": "06",
		"ADM2": "",
		"ADM3": "",
		"ADM4": "",
		"population": 571165,
		"parentId": "2077456"
	},
	{
		"id": "2152274",
		"name": "State of Queensland",
		"latitude": -20,
		"longitude": 145,
		"featureClass": "A",
		"featureCode": "ADM1",
		"countryCode": "AU",
		"ADM1": "04",
		"ADM2": "",
		"ADM3": "",
		"ADM4": "",
		"population": 5265043,
		"parentId": "2077456"
	},
	{
		"id": "2155400",
		"name": "State of New South Wales",
		"latitude": -33,
		"longitude": 146,
		"featureClass": "A",
		"featureCode": "ADM1",
		"countryCode": "AU",
		"ADM1": "02",
		"ADM2": "",
		"ADM3": "",
		"ADM4": "",
		"population": 8130115,
		"parentId": "2077456"
	},
	{
		"id": "2177478",
		"name": "Australian Capital Territory",
		"latitude": -35.5,
		"longitude": 149,
		"featureClass": "A",
		"featureCode": "ADM1",
		"countryCode": "AU",
		"ADM1": "01",
		"ADM2": "",
		"ADM3": "",
		"ADM4": "",
		"population": 455869,
		"parentId": "2077456"
	},
	{
		"id": "146879",
		"name": "Beylagan Rayon",
		"latitude": 39.75,
		"longitude": 47.66667,
		"featureClass": "A",
		"featureCode": "ADM1",
		"countryCode": "AZ",
		"ADM1": "12",
		"ADM2": "",
		"ADM3": "",
		"ADM4": "",
		"population": 81700,
		"parentId": "587116"
	},
	{
		"id": "146900",
		"name": "Zangilan Rayon",
		"latitude": 39.08333,
		"longitude": 46.66667,
		"featureClass": "A",
		"featureCode": "ADM1",
		"countryCode": "AZ",
		"ADM1": "69",
		"ADM2": "",
		"ADM3": "",
		"ADM4": "",
		"population": 32500,
		"parentId": "587116"
	},
	{
		"id": "146962",
		"name": "Yardymli Rayon",
		"latitude": 38.91667,
		"longitude": 48.25,
		"featureClass": "A",
		"featureCode": "ADM1",
		"countryCode": "AZ",
		"ADM1": "66",
		"ADM2": "",
		"ADM3": "",
		"ADM4": "",
		"population": 54576,
		"parentId": "587116"
	},
	{
		"id": "147163",
		"name": "Şuşa Rayonu",
		"latitude": 39.67773,
		"longitude": 46.66398,
		"featureClass": "A",
		"featureCode": "ADM1",
		"countryCode": "AZ",
		"ADM1": "55",
		"ADM2": "",
		"ADM3": "",
		"ADM4": "",
		"population": 33800,
		"parentId": "587116"
	},
	{
		"id": "147269",
		"name": "Salyan Rayon",
		"latitude": 39.66667,
		"longitude": 49,
		"featureClass": "A",
		"featureCode": "ADM1",
		"countryCode": "AZ",
		"ADM1": "49",
		"ADM2": "",
		"ADM3": "",
		"ADM4": "",
		"population": 117170,
		"parentId": "587116"
	},
	{
		"id": "147284",
		"name": "Sabirabad Rayon",
		"latitude": 39.91667,
		"longitude": 48.66667,
		"featureClass": "A",
		"featureCode": "ADM1",
		"countryCode": "AZ",
		"ADM1": "46",
		"ADM2": "",
		"ADM3": "",
		"ADM4": "",
		"population": 143514,
		"parentId": "587116"
	},
	{
		"id": "147287",
		"name": "Saatly Rayon",
		"latitude": 39.83333,
		"longitude": 48.41667,
		"featureClass": "A",
		"featureCode": "ADM1",
		"countryCode": "AZ",
		"ADM1": "45",
		"ADM2": "",
		"ADM3": "",
		"ADM4": "",
		"population": 87031,
		"parentId": "587116"
	},
	{
		"id": "147310",
		"name": "Bilasuvar Rayon",
		"latitude": 39.5,
		"longitude": 48.41667,
		"featureClass": "A",
		"featureCode": "ADM1",
		"countryCode": "AZ",
		"ADM1": "13",
		"ADM2": "",
		"ADM3": "",
		"ADM4": "",
		"population": 94400,
		"parentId": "587116"
	},
	{
		"id": "147422",
		"name": "Neftchala Rayon",
		"latitude": 39.33333,
		"longitude": 49,
		"featureClass": "A",
		"featureCode": "ADM1",
		"countryCode": "AZ",
		"ADM1": "36",
		"ADM2": "",
		"ADM3": "",
		"ADM4": "",
		"population": 75356,
		"parentId": "587116"
	},
	{
		"id": "147435",
		"name": "Nakhchivan Autonomous Republic",
		"latitude": 39.20991,
		"longitude": 45.41817,
		"featureClass": "A",
		"featureCode": "ADM1",
		"countryCode": "AZ",
		"ADM1": "35",
		"ADM2": "",
		"ADM3": "",
		"ADM4": "",
		"population": 64754,
		"parentId": "587116"
	},
	{
		"id": "147551",
		"name": "Masally District",
		"latitude": 39,
		"longitude": 48.66667,
		"featureClass": "A",
		"featureCode": "ADM1",
		"countryCode": "AZ",
		"ADM1": "32",
		"ADM2": "",
		"ADM3": "",
		"ADM4": "",
		"population": 183532,
		"parentId": "587116"
	},
	{
		"id": "147610",
		"name": "Lerik Rayon",
		"latitude": 38.75,
		"longitude": 48.41667,
		"featureClass": "A",
		"featureCode": "ADM1",
		"countryCode": "AZ",
		"ADM1": "31",
		"ADM2": "",
		"ADM3": "",
		"ADM4": "",
		"population": 69735,
		"parentId": "587116"
	},
	{
		"id": "147613",
		"name": "Lankaran Rayon",
		"latitude": 38.70071,
		"longitude": 48.75551,
		"featureClass": "A",
		"featureCode": "ADM1",
		"countryCode": "AZ",
		"ADM1": "29",
		"ADM2": "",
		"ADM3": "",
		"ADM4": "",
		"population": 197500,
		"parentId": "587116"
	},
	{
		"id": "147626",
		"name": "Laçın Rayonu",
		"latitude": 39.65073,
		"longitude": 46.39913,
		"featureClass": "A",
		"featureCode": "ADM1",
		"countryCode": "AZ",
		"ADM1": "28",
		"ADM2": "",
		"ADM3": "",
		"ADM4": "",
		"population": 68033,
		"parentId": "587116"
	},
	{
		"id": "147694",
		"name": "Qubadli Rayon",
		"latitude": 39.33333,
		"longitude": 46.58333,
		"featureClass": "A",
		"featureCode": "ADM1",
		"countryCode": "AZ",
		"ADM1": "43",
		"ADM2": "",
		"ADM3": "",
		"ADM4": "",
		"population": 35067,
		"parentId": "587116"
	},
	{
		"id": "147983",
		"name": "Imishli Rayon",
		"latitude": 39.83333,
		"longitude": 48.08333,
		"featureClass": "A",
		"featureCode": "ADM1",
		"countryCode": "AZ",
		"ADM1": "24",
		"ADM2": "",
		"ADM3": "",
		"ADM4": "",
		"population": 109061,
		"parentId": "587116"
	},
	{
		"id": "148107",
		"name": "Fizuli Rayon",
		"latitude": 39.58333,
		"longitude": 47.33333,
		"featureClass": "A",
		"featureCode": "ADM1",
		"countryCode": "AZ",
		"ADM1": "18",
		"ADM2": "",
		"ADM3": "",
		"ADM4": "",
		"population": 144442,
		"parentId": "587116"
	},
	{
		"id": "148140",
		"name": "Jabrayil District",
		"latitude": 39.33333,
		"longitude": 47,
		"featureClass": "A",
		"featureCode": "ADM1",
		"countryCode": "AZ",
		"ADM1": "14",
		"ADM2": "",
		"ADM3": "",
		"ADM4": "",
		"population": 79900,
		"parentId": "587116"
	},
	{
		"id": "148155",
		"name": "Jalilabad",
		"latitude": 39.25,
		"longitude": 48.5,
		"featureClass": "A",
		"featureCode": "ADM1",
		"countryCode": "AZ",
		"ADM1": "15",
		"ADM2": "",
		"ADM3": "",
		"ADM4": "",
		"population": 200000,
		"parentId": "587116"
	},
	{
		"id": "148442",
		"name": "Astara District",
		"latitude": 38.5,
		"longitude": 48.66667,
		"featureClass": "A",
		"featureCode": "ADM1",
		"countryCode": "AZ",
		"ADM1": "08",
		"ADM2": "",
		"ADM3": "",
		"ADM4": "",
		"population": 90708,
		"parentId": "587116"
	},
	{
		"id": "148449",
		"name": "Xocalı Rayonu",
		"latitude": 39.83333,
		"longitude": 46.75,
		"featureClass": "A",
		"featureCode": "ADM1",
		"countryCode": "AZ",
		"ADM1": "64",
		"ADM2": "",
		"ADM3": "",
		"ADM4": "",
		"population": 28300,
		"parentId": "587116"
	},
	{
		"id": "148615",
		"name": "Aghjabadi Rayon",
		"latitude": 40,
		"longitude": 47.41667,
		"featureClass": "A",
		"featureCode": "ADM1",
		"countryCode": "AZ",
		"ADM1": "02",
		"ADM2": "",
		"ADM3": "",
		"ADM4": "",
		"population": 122649,
		"parentId": "587116"
	},
	{
		"id": "148617",
		"name": "Aghdam Rayon",
		"latitude": 40,
		"longitude": 47,
		"featureClass": "A",
		"featureCode": "ADM1",
		"countryCode": "AZ",
		"ADM1": "03",
		"ADM2": "",
		"ADM3": "",
		"ADM4": "",
		"population": 200000,
		"parentId": "587116"
	},
	{
		"id": "409417",
		"name": "Shirvan",
		"latitude": 39.9604,
		"longitude": 48.88181,
		"featureClass": "A",
		"featureCode": "ADM1",
		"countryCode": "AZ",
		"ADM1": "07",
		"ADM2": "",
		"ADM3": "",
		"ADM4": "",
		"population": 81200,
		"parentId": "587116"
	},
	{
		"id": "409418",
		"name": "Lankaran Sahari",
		"latitude": 38.73333,
		"longitude": 48.83333,
		"featureClass": "A",
		"featureCode": "ADM1",
		"countryCode": "AZ",
		"ADM1": "30",
		"ADM2": "",
		"ADM3": "",
		"ADM4": "",
		"population": 83300,
		"parentId": "587116"
	},
	{
		"id": "409419",
		"name": "Shusha",
		"latitude": 39.75,
		"longitude": 46.75,
		"featureClass": "A",
		"featureCode": "ADM1",
		"countryCode": "AZ",
		"ADM1": "56",
		"ADM2": "",
		"ADM3": "",
		"ADM4": "",
		"population": 33800,
		"parentId": "587116"
	},
	{
		"id": "409420",
		"name": "Tartar Rayon",
		"latitude": 40.33054,
		"longitude": 46.94289,
		"featureClass": "A",
		"featureCode": "ADM1",
		"countryCode": "AZ",
		"ADM1": "57",
		"ADM2": "",
		"ADM3": "",
		"ADM4": "",
		"population": 103600,
		"parentId": "587116"
	},
	{
		"id": "409421",
		"name": "Xankandi Sahari",
		"latitude": 39.81744,
		"longitude": 46.75318,
		"featureClass": "A",
		"featureCode": "ADM1",
		"countryCode": "AZ",
		"ADM1": "61",
		"ADM2": "",
		"ADM3": "",
		"ADM4": "",
		"population": 55800,
		"parentId": "587116"
	},
	{
		"id": "409423",
		"name": "Khojavend District",
		"latitude": 39.66667,
		"longitude": 47,
		"featureClass": "A",
		"featureCode": "ADM1",
		"countryCode": "AZ",
		"ADM1": "65",
		"ADM2": "",
		"ADM3": "",
		"ADM4": "",
		"population": 43600,
		"parentId": "587116"
	},
	{
		"id": "584583",
		"name": "Zardab Rayon",
		"latitude": 40.25,
		"longitude": 47.75,
		"featureClass": "A",
		"featureCode": "ADM1",
		"countryCode": "AZ",
		"ADM1": "71",
		"ADM2": "",
		"ADM3": "",
		"ADM4": "",
		"population": 51800,
		"parentId": "587116"
	},
	{
		"id": "584604",
		"name": "Zaqatala Rayon",
		"latitude": 41.58333,
		"longitude": 46.66667,
		"featureClass": "A",
		"featureCode": "ADM1",
		"countryCode": "AZ",
		"ADM1": "70",
		"ADM2": "",
		"ADM3": "",
		"ADM4": "",
		"population": 127800,
		"parentId": "587116"
	},
	{
		"id": "584650",
		"name": "Yevlakh Rayon",
		"latitude": 40.66667,
		"longitude": 47,
		"featureClass": "A",
		"featureCode": "ADM1",
		"countryCode": "AZ",
		"ADM1": "67",
		"ADM2": "",
		"ADM3": "",
		"ADM4": "",
		"population": 126700,
		"parentId": "587116"
	},
	{
		"id": "584742",
		"name": "Oghuz Rayon",
		"latitude": 41.08333,
		"longitude": 47.5,
		"featureClass": "A",
		"featureCode": "ADM1",
		"countryCode": "AZ",
		"ADM1": "37",
		"ADM2": "",
		"ADM3": "",
		"ADM4": "",
		"population": 44000,
		"parentId": "587116"
	},
	{
		"id": "584783",
		"name": "Ujar Rayon",
		"latitude": 40.41667,
		"longitude": 47.75,
		"featureClass": "A",
		"featureCode": "ADM1",
		"countryCode": "AZ",
		"ADM1": "59",
		"ADM2": "",
		"ADM3": "",
		"ADM4": "",
		"population": 74067,
		"parentId": "587116"
	},
	{
		"id": "584861",
		"name": "Tovuz Rayon",
		"latitude": 41,
		"longitude": 45.75,
		"featureClass": "A",
		"featureCode": "ADM1",
		"countryCode": "AZ",
		"ADM1": "58",
		"ADM2": "",
		"ADM3": "",
		"ADM4": "",
		"population": 174000,
		"parentId": "587116"
	},
	{
		"id": "585030",
		"name": "Shamakhi Rayon",
		"latitude": 40.58333,
		"longitude": 48.66667,
		"featureClass": "A",
		"featureCode": "ADM1",
		"countryCode": "AZ",
		"ADM1": "50",
		"ADM2": "",
		"ADM3": "",
		"ADM4": "",
		"population": 85795,
		"parentId": "587116"
	},
	{
		"id": "585031",
		"name": "Shaki Rayon",
		"latitude": 41.08333,
		"longitude": 47.16667,
		"featureClass": "A",
		"featureCode": "ADM1",
		"countryCode": "AZ",
		"ADM1": "47",
		"ADM2": "",
		"ADM3": "",
		"ADM4": "",
		"population": 185400,
		"parentId": "587116"
	},
	{
		"id": "585059",
		"name": "Shamkir Rayon",
		"latitude": 40.83333,
		"longitude": 46.08333,
		"featureClass": "A",
		"featureCode": "ADM1",
		"countryCode": "AZ",
		"ADM1": "51",
		"ADM2": "",
		"ADM3": "",
		"ADM4": "",
		"population": 215000,
		"parentId": "587116"
	},
	{
		"id": "585686",
		"name": "Kurdamir Rayon",
		"latitude": 40.25,
		"longitude": 48.16667,
		"featureClass": "A",
		"featureCode": "ADM1",
		"countryCode": "AZ",
		"ADM1": "27",
		"ADM2": "",
		"ADM3": "",
		"ADM4": "",
		"population": 106128,
		"parentId": "587116"
	},
	{
		"id": "585738",
		"name": "Qabala Rayon",
		"latitude": 40.91667,
		"longitude": 47.83333,
		"featureClass": "A",
		"featureCode": "ADM1",
		"countryCode": "AZ",
		"ADM1": "38",
		"ADM2": "",
		"ADM3": "",
		"ADM4": "",
		"population": 105500,
		"parentId": "587116"
	},
	{
		"id": "585749",
		"name": "Qusar Rayon",
		"latitude": 41.41667,
		"longitude": 48.25,
		"featureClass": "A",
		"featureCode": "ADM1",
		"countryCode": "AZ",
		"ADM1": "44",
		"ADM2": "",
		"ADM3": "",
		"ADM4": "",
		"population": 84645,
		"parentId": "587116"
	},
	{
		"id": "585786",
		"name": "Quba Rayon",
		"latitude": 41.16667,
		"longitude": 48.41667,
		"featureClass": "A",
		"featureCode": "ADM1",
		"countryCode": "AZ",
		"ADM1": "42",
		"ADM2": "",
		"ADM3": "",
		"ADM4": "",
		"population": 143047,
		"parentId": "587116"
	},
	{
		"id": "585967",
		"name": "Goygol Rayon",
		"latitude": 40.5,
		"longitude": 46.33333,
		"featureClass": "A",
		"featureCode": "ADM1",
		"countryCode": "AZ",
		"ADM1": "62",
		"ADM2": "",
		"ADM3": "",
		"ADM4": "",
		"population": 63400,
		"parentId": "587116"
	},
	{
		"id": "586001",
		"name": "Khachmaz Rayon",
		"latitude": 41.58333,
		"longitude": 48.75,
		"featureClass": "A",
		"featureCode": "ADM1",
		"countryCode": "AZ",
		"ADM1": "60",
		"ADM2": "",
		"ADM3": "",
		"ADM4": "",
		"population": 152360,
		"parentId": "587116"
	},
	{
		"id": "586047",
		"name": "Kalbajar District",
		"latitude": 40.1027,
		"longitude": 46.1747,
		"featureClass": "A",
		"featureCode": "ADM1",
		"countryCode": "AZ",
		"ADM1": "26",
		"ADM2": "",
		"ADM3": "",
		"ADM4": "",
		"population": 53962,
		"parentId": "587116"
	},
	{
		"id": "586087",
		"name": "Qazakh Rayon",
		"latitude": 41.26,
		"longitude": 45.09,
		"featureClass": "A",
		"featureCode": "ADM1",
		"countryCode": "AZ",
		"ADM1": "40",
		"ADM2": "",
		"ADM3": "",
		"ADM4": "",
		"population": 96700,
		"parentId": "587116"
	},
	{
		"id": "586112",
		"name": "Goranboy Rayon",
		"latitude": 40.58333,
		"longitude": 46.66667,
		"featureClass": "A",
		"featureCode": "ADM1",
		"countryCode": "AZ",
		"ADM1": "21",
		"ADM2": "",
		"ADM3": "",
		"ADM4": "",
		"population": 103300,
		"parentId": "587116"
	},
	{
		"id": "586290",
		"name": "Qakh Rayon",
		"latitude": 41.33333,
		"longitude": 46.75,
		"featureClass": "A",
		"featureCode": "ADM1",
		"countryCode": "AZ",
		"ADM1": "39",
		"ADM2": "",
		"ADM3": "",
		"ADM4": "",
		"population": 56500,
		"parentId": "587116"
	},
	{
		"id": "586320",
		"name": "Ismayilli Rayon",
		"latitude": 40.83333,
		"longitude": 48.16667,
		"featureClass": "A",
		"featureCode": "ADM1",
		"countryCode": "AZ",
		"ADM1": "25",
		"ADM2": "",
		"ADM3": "",
		"ADM4": "",
		"population": 76184,
		"parentId": "587116"
	},
	{
		"id": "586482",
		"name": "Goychay Rayon",
		"latitude": 40.58333,
		"longitude": 47.83333,
		"featureClass": "A",
		"featureCode": "ADM1",
		"countryCode": "AZ",
		"ADM1": "22",
		"ADM2": "",
		"ADM3": "",
		"ADM4": "",
		"population": 105323,
		"parentId": "587116"
	},
	{
		"id": "586725",
		"name": "Shabran Rayon",
		"latitude": 41.18542,
		"longitude": 48.8275,
		"featureClass": "A",
		"featureCode": "ADM1",
		"countryCode": "AZ",
		"ADM1": "17",
		"ADM2": "",
		"ADM3": "",
		"ADM4": "",
		"population": 53000,
		"parentId": "587116"
	},
	{
		"id": "586771",
		"name": "Dashkasan Rayon",
		"latitude": 40.41667,
		"longitude": 46,
		"featureClass": "A",
		"featureCode": "ADM1",
		"countryCode": "AZ",
		"ADM1": "16",
		"ADM2": "",
		"ADM3": "",
		"ADM4": "",
		"population": 35000,
		"parentId": "587116"
	},
	{
		"id": "587010",
		"name": "Balakan Rayon",
		"latitude": 41.75,
		"longitude": 46.41667,
		"featureClass": "A",
		"featureCode": "ADM1",
		"countryCode": "AZ",
		"ADM1": "10",
		"ADM2": "",
		"ADM3": "",
		"ADM4": "",
		"population": 97600,
		"parentId": "587116"
	},
	{
		"id": "587056",
		"name": "Barda Rayon",
		"latitude": 40.33333,
		"longitude": 47.16667,
		"featureClass": "A",
		"featureCode": "ADM1",
		"countryCode": "AZ",
		"ADM1": "11",
		"ADM2": "",
		"ADM3": "",
		"ADM4": "",
		"population": 129600,
		"parentId": "587116"
	},
	{
		"id": "587081",
		"name": "Baku City",
		"latitude": 40.39802,
		"longitude": 49.72414,
		"featureClass": "A",
		"featureCode": "ADM1",
		"countryCode": "AZ",
		"ADM1": "09",
		"ADM2": "",
		"ADM3": "",
		"ADM4": "",
		"population": 2122300,
		"parentId": "587116"
	},
	{
		"id": "587245",
		"name": "Absheron Rayon",
		"latitude": 40.41667,
		"longitude": 49.33333,
		"featureClass": "A",
		"featureCode": "ADM1",
		"countryCode": "AZ",
		"ADM1": "01",
		"ADM2": "",
		"ADM3": "",
		"ADM4": "",
		"population": 210000,
		"parentId": "587116"
	},
	{
		"id": "587342",
		"name": "Aghsu Rayon",
		"latitude": 40.5,
		"longitude": 48.33333,
		"featureClass": "A",
		"featureCode": "ADM1",
		"countryCode": "AZ",
		"ADM1": "06",
		"ADM2": "",
		"ADM3": "",
		"ADM4": "",
		"population": 66645,
		"parentId": "587116"
	},
	{
		"id": "587376",
		"name": "Aghdash Rayon",
		"latitude": 40.58333,
		"longitude": 47.41667,
		"featureClass": "A",
		"featureCode": "ADM1",
		"countryCode": "AZ",
		"ADM1": "04",
		"ADM2": "",
		"ADM3": "",
		"ADM4": "",
		"population": 98600,
		"parentId": "587116"
	},
	{
		"id": "627535",
		"name": "Gadabay Rayon",
		"latitude": 40.5,
		"longitude": 45.66667,
		"featureClass": "A",
		"featureCode": "ADM1",
		"countryCode": "AZ",
		"ADM1": "19",
		"ADM2": "",
		"ADM3": "",
		"ADM4": "",
		"population": 99800,
		"parentId": "587116"
	},
	{
		"id": "828297",
		"name": "Aghstafa Rayon",
		"latitude": 41.25,
		"longitude": 45.5,
		"featureClass": "A",
		"featureCode": "ADM1",
		"countryCode": "AZ",
		"ADM1": "05",
		"ADM2": "",
		"ADM3": "",
		"ADM4": "",
		"population": 87200,
		"parentId": "587116"
	},
	{
		"id": "828298",
		"name": "Ganja City",
		"latitude": 40.6937,
		"longitude": 46.34082,
		"featureClass": "A",
		"featureCode": "ADM1",
		"countryCode": "AZ",
		"ADM1": "20",
		"ADM2": "",
		"ADM3": "",
		"ADM4": "",
		"population": 332600,
		"parentId": "587116"
	},
	{
		"id": "828299",
		"name": "Mingacevir City",
		"latitude": 40.76667,
		"longitude": 47,
		"featureClass": "A",
		"featureCode": "ADM1",
		"countryCode": "AZ",
		"ADM1": "33",
		"ADM2": "",
		"ADM3": "",
		"ADM4": "",
		"population": 99775,
		"parentId": "587116"
	},
	{
		"id": "828300",
		"name": "Naftalan City",
		"latitude": 40.50525,
		"longitude": 46.81163,
		"featureClass": "A",
		"featureCode": "ADM1",
		"countryCode": "AZ",
		"ADM1": "34",
		"ADM2": "",
		"ADM3": "",
		"ADM4": "",
		"population": 10100,
		"parentId": "587116"
	},
	{
		"id": "828301",
		"name": "Gobustan Rayon",
		"latitude": 40.5,
		"longitude": 49,
		"featureClass": "A",
		"featureCode": "ADM1",
		"countryCode": "AZ",
		"ADM1": "41",
		"ADM2": "",
		"ADM3": "",
		"ADM4": "",
		"population": 37224,
		"parentId": "587116"
	},
	{
		"id": "828302",
		"name": "Samukh Rayon",
		"latitude": 40.91667,
		"longitude": 46.41667,
		"featureClass": "A",
		"featureCode": "ADM1",
		"countryCode": "AZ",
		"ADM1": "52",
		"ADM2": "",
		"ADM3": "",
		"ADM4": "",
		"population": 57700,
		"parentId": "587116"
	},
	{
		"id": "828303",
		"name": "Shaki city",
		"latitude": 41.18333,
		"longitude": 47.16667,
		"featureClass": "A",
		"featureCode": "ADM1",
		"countryCode": "AZ",
		"ADM1": "48",
		"ADM2": "",
		"ADM3": "",
		"ADM4": "",
		"population": 185400,
		"parentId": "587116"
	},
	{
		"id": "828304",
		"name": "Siazan Rayon",
		"latitude": 41,
		"longitude": 49.08333,
		"featureClass": "A",
		"featureCode": "ADM1",
		"countryCode": "AZ",
		"ADM1": "53",
		"ADM2": "",
		"ADM3": "",
		"ADM4": "",
		"population": 38400,
		"parentId": "587116"
	},
	{
		"id": "828305",
		"name": "Sumqayit City",
		"latitude": 40.59466,
		"longitude": 49.62799,
		"featureClass": "A",
		"featureCode": "ADM1",
		"countryCode": "AZ",
		"ADM1": "54",
		"ADM2": "",
		"ADM3": "",
		"ADM4": "",
		"population": 341200,
		"parentId": "587116"
	},
	{
		"id": "828306",
		"name": "Khizi Rayon",
		"latitude": 40.75,
		"longitude": 49.16667,
		"featureClass": "A",
		"featureCode": "ADM1",
		"countryCode": "AZ",
		"ADM1": "63",
		"ADM2": "",
		"ADM3": "",
		"ADM4": "",
		"population": 16800,
		"parentId": "587116"
	},
	{
		"id": "828307",
		"name": "Yevlakh City",
		"latitude": 40.58333,
		"longitude": 47.16667,
		"featureClass": "A",
		"featureCode": "ADM1",
		"countryCode": "AZ",
		"ADM1": "68",
		"ADM2": "",
		"ADM3": "",
		"ADM4": "",
		"population": 59036,
		"parentId": "587116"
	},
	{
		"id": "828315",
		"name": "Hajigabul Rayon",
		"latitude": 40.08333,
		"longitude": 48.91667,
		"featureClass": "A",
		"featureCode": "ADM1",
		"countryCode": "AZ",
		"ADM1": "23",
		"ADM2": "",
		"ADM3": "",
		"ADM4": "",
		"population": 61015,
		"parentId": "587116"
	},
	{
		"id": "3229999",
		"name": "Federation of Bosnia and Herzegovina",
		"latitude": 44,
		"longitude": 17.58333,
		"featureClass": "A",
		"featureCode": "ADM1",
		"countryCode": "BA",
		"ADM1": "01",
		"ADM2": "",
		"ADM3": "",
		"ADM4": "",
		"population": 2371603,
		"parentId": "3277605"
	},
	{
		"id": "3230000",
		"name": "Republika Srpska",
		"latitude": 44.73333,
		"longitude": 17.4,
		"featureClass": "A",
		"featureCode": "ADM1",
		"countryCode": "BA",
		"ADM1": "02",
		"ADM2": "",
		"ADM3": "",
		"ADM4": "",
		"population": 1326991,
		"parentId": "3277605"
	},
	{
		"id": "3294903",
		"name": "Brčko District",
		"latitude": 44.83333,
		"longitude": 18.83333,
		"featureClass": "A",
		"featureCode": "ADM1",
		"countryCode": "BA",
		"ADM1": "BRC",
		"ADM2": "",
		"ADM3": "",
		"ADM4": "",
		"population": 87332,
		"parentId": "3277605"
	},
	{
		"id": "3373551",
		"name": "Saint Thomas",
		"latitude": 13.17932,
		"longitude": -59.58787,
		"featureClass": "A",
		"featureCode": "ADM1",
		"countryCode": "BB",
		"ADM1": "11",
		"ADM2": "",
		"ADM3": "",
		"ADM4": "",
		"population": 11850,
		"parentId": "3374084"
	},
	{
		"id": "3373553",
		"name": "Saint Philip",
		"latitude": 13.1339,
		"longitude": -59.46402,
		"featureClass": "A",
		"featureCode": "ADM1",
		"countryCode": "BB",
		"ADM1": "10",
		"ADM2": "",
		"ADM3": "",
		"ADM4": "",
		"population": 20944,
		"parentId": "3374084"
	},
	{
		"id": "3373554",
		"name": "Saint Peter",
		"latitude": 13.26096,
		"longitude": -59.61585,
		"featureClass": "A",
		"featureCode": "ADM1",
		"countryCode": "BB",
		"ADM1": "09",
		"ADM2": "",
		"ADM3": "",
		"ADM4": "",
		"population": 11544,
		"parentId": "3374084"
	},
	{
		"id": "3373557",
		"name": "Saint Michael",
		"latitude": 13.12633,
		"longitude": -59.59817,
		"featureClass": "A",
		"featureCode": "ADM1",
		"countryCode": "BB",
		"ADM1": "08",
		"ADM2": "",
		"ADM3": "",
		"ADM4": "",
		"population": 99609,
		"parentId": "3374084"
	},
	{
		"id": "3373565",
		"name": "Saint Lucy",
		"latitude": 13.30728,
		"longitude": -59.61937,
		"featureClass": "A",
		"featureCode": "ADM1",
		"countryCode": "BB",
		"ADM1": "07",
		"ADM2": "",
		"ADM3": "",
		"ADM4": "",
		"population": 9706,
		"parentId": "3374084"
	},
	{
		"id": "3373568",
		"name": "Saint Joseph",
		"latitude": 13.2056,
		"longitude": -59.54418,
		"featureClass": "A",
		"featureCode": "ADM1",
		"countryCode": "BB",
		"ADM1": "06",
		"ADM2": "",
		"ADM3": "",
		"ADM4": "",
		"population": 7764,
		"parentId": "3374084"
	},
	{
		"id": "3373569",
		"name": "Saint John",
		"latitude": 13.17581,
		"longitude": -59.50303,
		"featureClass": "A",
		"featureCode": "ADM1",
		"countryCode": "BB",
		"ADM1": "05",
		"ADM2": "",
		"ADM3": "",
		"ADM4": "",
		"population": 10421,
		"parentId": "3374084"
	},
	{
		"id": "3373570",
		"name": "Saint James",
		"latitude": 13.21183,
		"longitude": -59.61956,
		"featureClass": "A",
		"featureCode": "ADM1",
		"countryCode": "BB",
		"ADM1": "04",
		"ADM2": "",
		"ADM3": "",
		"ADM4": "",
		"population": 21454,
		"parentId": "3374084"
	},
	{
		"id": "3373572",
		"name": "Saint George",
		"latitude": 13.13933,
		"longitude": -59.54345,
		"featureClass": "A",
		"featureCode": "ADM1",
		"countryCode": "BB",
		"ADM1": "03",
		"ADM2": "",
		"ADM3": "",
		"ADM4": "",
		"population": 19530,
		"parentId": "3374084"
	},
	{
		"id": "3373580",
		"name": "Saint Andrew",
		"latitude": 13.23986,
		"longitude": -59.5783,
		"featureClass": "A",
		"featureCode": "ADM1",
		"countryCode": "BB",
		"ADM1": "02",
		"ADM2": "",
		"ADM3": "",
		"ADM4": "",
		"population": 6436,
		"parentId": "3374084"
	},
	{
		"id": "3373988",
		"name": "Christ Church",
		"latitude": 13.08734,
		"longitude": -59.52418,
		"featureClass": "A",
		"featureCode": "ADM1",
		"countryCode": "BB",
		"ADM1": "01",
		"ADM2": "",
		"ADM3": "",
		"ADM4": "",
		"population": 48119,
		"parentId": "3374084"
	},
	{
		"id": "1337166",
		"name": "Rājshāhi Division",
		"latitude": 25,
		"longitude": 89,
		"featureClass": "A",
		"featureCode": "ADM1",
		"countryCode": "BD",
		"ADM1": "83",
		"ADM2": "",
		"ADM3": "",
		"ADM4": "",
		"population": 18484858,
		"parentId": "1210997"
	},
	{
		"id": "1337179",
		"name": "Dhaka Division",
		"latitude": 23.83333,
		"longitude": 90.25,
		"featureClass": "A",
		"featureCode": "ADM1",
		"countryCode": "BD",
		"ADM1": "81",
		"ADM2": "",
		"ADM3": "",
		"ADM4": "",
		"population": 44215107,
		"parentId": "1210997"
	},
	{
		"id": "1337200",
		"name": "Chittagong",
		"latitude": 22.91667,
		"longitude": 91.5,
		"featureClass": "A",
		"featureCode": "ADM1",
		"countryCode": "BD",
		"ADM1": "84",
		"ADM2": "",
		"ADM3": "",
		"ADM4": "",
		"population": 28423019,
		"parentId": "1210997"
	},
	{
		"id": "1337210",
		"name": "Khulna Division",
		"latitude": 22.91667,
		"longitude": 89.33333,
		"featureClass": "A",
		"featureCode": "ADM1",
		"countryCode": "BD",
		"ADM1": "82",
		"ADM2": "",
		"ADM3": "",
		"ADM4": "",
		"population": 15687759,
		"parentId": "1210997"
	},
	{
		"id": "1337229",
		"name": "Barisal Division",
		"latitude": 22.5,
		"longitude": 90.33333,
		"featureClass": "A",
		"featureCode": "ADM1",
		"countryCode": "BD",
		"ADM1": "85",
		"ADM2": "",
		"ADM3": "",
		"ADM4": "",
		"population": 8325666,
		"parentId": "1210997"
	},
	{
		"id": "1477362",
		"name": "Sylhet Division",
		"latitude": 24.66667,
		"longitude": 91.66667,
		"featureClass": "A",
		"featureCode": "ADM1",
		"countryCode": "BD",
		"ADM1": "86",
		"ADM2": "",
		"ADM3": "",
		"ADM4": "",
		"population": 9910219,
		"parentId": "1210997"
	},
	{
		"id": "7671048",
		"name": "Rangpur Division",
		"latitude": 25.83333,
		"longitude": 89,
		"featureClass": "A",
		"featureCode": "ADM1",
		"countryCode": "BD",
		"ADM1": "87",
		"ADM2": "",
		"ADM3": "",
		"ADM4": "",
		"population": 15787758,
		"parentId": "1210997"
	},
	{
		"id": "11287936",
		"name": "Mymensingh Division",
		"latitude": 24.72937,
		"longitude": 90.38109,
		"featureClass": "A",
		"featureCode": "ADM1",
		"countryCode": "BD",
		"ADM1": "H",
		"ADM2": "",
		"ADM3": "",
		"ADM4": "",
		"population": 11370000,
		"parentId": "1210997"
	},
	{
		"id": "2800867",
		"name": "Bruxelles-Capitale",
		"latitude": 50.85332,
		"longitude": 4.35144,
		"featureClass": "A",
		"featureCode": "ADM1",
		"countryCode": "BE",
		"ADM1": "BRU",
		"ADM2": "",
		"ADM3": "",
		"ADM4": "",
		"population": 1222637,
		"parentId": "2802361"
	},
	{
		"id": "3337387",
		"name": "Wallonia",
		"latitude": 50.5,
		"longitude": 4.75,
		"featureClass": "A",
		"featureCode": "ADM1",
		"countryCode": "BE",
		"ADM1": "WAL",
		"ADM2": "",
		"ADM3": "",
		"ADM4": "",
		"population": 3633795,
		"parentId": "2802361"
	},
	{
		"id": "3337388",
		"name": "Flanders",
		"latitude": 51,
		"longitude": 4.5,
		"featureClass": "A",
		"featureCode": "ADM1",
		"countryCode": "BE",
		"ADM1": "VLG",
		"ADM2": "",
		"ADM3": "",
		"ADM4": "",
		"population": 6629143,
		"parentId": "2802361"
	},
	{
		"id": "6930701",
		"name": "Boucle du Mouhoun Region",
		"latitude": 12.47203,
		"longitude": -3.47305,
		"featureClass": "A",
		"featureCode": "ADM1",
		"countryCode": "BF",
		"ADM1": "01",
		"ADM2": "",
		"ADM3": "",
		"ADM4": "",
		"population": 1898133,
		"parentId": "2361809"
	},
	{
		"id": "6930703",
		"name": "Cascades Region",
		"latitude": 10.38,
		"longitude": -4.5,
		"featureClass": "A",
		"featureCode": "ADM1",
		"countryCode": "BF",
		"ADM1": "02",
		"ADM2": "",
		"ADM3": "",
		"ADM4": "",
		"population": 812062,
		"parentId": "2361809"
	},
	{
		"id": "6930704",
		"name": "Centre",
		"latitude": 12.37874,
		"longitude": -1.53276,
		"featureClass": "A",
		"featureCode": "ADM1",
		"countryCode": "BF",
		"ADM1": "03",
		"ADM2": "",
		"ADM3": "",
		"ADM4": "",
		"population": 3030384,
		"parentId": "2361809"
	},
	{
		"id": "6930705",
		"name": "Centre-Est",
		"latitude": 11.78922,
		"longitude": -0.35706,
		"featureClass": "A",
		"featureCode": "ADM1",
		"countryCode": "BF",
		"ADM1": "04",
		"ADM2": "",
		"ADM3": "",
		"ADM4": "",
		"population": 1578075,
		"parentId": "2361809"
	},
	{
		"id": "6930706",
		"name": "Centre-Nord",
		"latitude": 13.09829,
		"longitude": -1.0855,
		"featureClass": "A",
		"featureCode": "ADM1",
		"countryCode": "BF",
		"ADM1": "05",
		"ADM2": "",
		"ADM3": "",
		"ADM4": "",
		"population": 1872126,
		"parentId": "2361809"
	},
	{
		"id": "6930707",
		"name": "Centre-Ouest",
		"latitude": 12.25488,
		"longitude": -2.36876,
		"featureClass": "A",
		"featureCode": "ADM1",
		"countryCode": "BF",
		"ADM1": "06",
		"ADM2": "",
		"ADM3": "",
		"ADM4": "",
		"population": 1659339,
		"parentId": "2361809"
	},
	{
		"id": "6930708",
		"name": "Centre-Sud",
		"latitude": 11.67132,
		"longitude": -1.07374,
		"featureClass": "A",
		"featureCode": "ADM1",
		"countryCode": "BF",
		"ADM1": "07",
		"ADM2": "",
		"ADM3": "",
		"ADM4": "",
		"population": 788341,
		"parentId": "2361809"
	},
	{
		"id": "6930709",
		"name": "Est",
		"latitude": 12.06308,
		"longitude": 0.36349,
		"featureClass": "A",
		"featureCode": "ADM1",
		"countryCode": "BF",
		"ADM1": "08",
		"ADM2": "",
		"ADM3": "",
		"ADM4": "",
		"population": 1941505,
		"parentId": "2361809"
	},
	{
		"id": "6930710",
		"name": "High-Basins Region",
		"latitude": 11.28,
		"longitude": -4.32,
		"featureClass": "A",
		"featureCode": "ADM1",
		"countryCode": "BF",
		"ADM1": "09",
		"ADM2": "",
		"ADM3": "",
		"ADM4": "",
		"population": 2238375,
		"parentId": "2361809"
	},
	{
		"id": "6930711",
		"name": "Nord",
		"latitude": 13.58809,
		"longitude": -2.4212,
		"featureClass": "A",
		"featureCode": "ADM1",
		"countryCode": "BF",
		"ADM1": "10",
		"ADM2": "",
		"ADM3": "",
		"ADM4": "",
		"population": 1720908,
		"parentId": "2361809"
	},
	{
		"id": "6930712",
		"name": "Plateau-Central",
		"latitude": 12.58774,
		"longitude": -1.30102,
		"featureClass": "A",
		"featureCode": "ADM1",
		"countryCode": "BF",
		"ADM1": "11",
		"ADM2": "",
		"ADM3": "",
		"ADM4": "",
		"population": 977510,
		"parentId": "2361809"
	},
	{
		"id": "6930713",
		"name": "Sahel",
		"latitude": 14.03351,
		"longitude": -0.04575,
		"featureClass": "A",
		"featureCode": "ADM1",
		"countryCode": "BF",
		"ADM1": "12",
		"ADM2": "",
		"ADM3": "",
		"ADM4": "",
		"population": 1094907,
		"parentId": "2361809"
	},
	{
		"id": "6930714",
		"name": "Southwest Region",
		"latitude": 10.5,
		"longitude": -3.2,
		"featureClass": "A",
		"featureCode": "ADM1",
		"countryCode": "BF",
		"ADM1": "13",
		"ADM2": "",
		"ADM3": "",
		"ADM4": "",
		"population": 874030,
		"parentId": "2361809"
	},
	{
		"id": "453751",
		"name": "Oblast Razgrad",
		"latitude": 43.65,
		"longitude": 26.6,
		"featureClass": "A",
		"featureCode": "ADM1",
		"countryCode": "BG",
		"ADM1": "52",
		"ADM2": "",
		"ADM3": "",
		"ADM4": "",
		"population": 112229,
		"parentId": "732800"
	},
	{
		"id": "453753",
		"name": "Oblast Montana",
		"latitude": 43.5,
		"longitude": 23.18333,
		"featureClass": "A",
		"featureCode": "ADM1",
		"countryCode": "BG",
		"ADM1": "47",
		"ADM2": "",
		"ADM3": "",
		"ADM4": "",
		"population": 129637,
		"parentId": "732800"
	},
	{
		"id": "725713",
		"name": "Oblast Vratsa",
		"latitude": 43.4,
		"longitude": 23.76667,
		"featureClass": "A",
		"featureCode": "ADM1",
		"countryCode": "BG",
		"ADM1": "64",
		"ADM2": "",
		"ADM3": "",
		"ADM4": "",
		"population": 162549,
		"parentId": "732800"
	},
	{
		"id": "726051",
		"name": "Varna",
		"latitude": 43.21667,
		"longitude": 27.6,
		"featureClass": "A",
		"featureCode": "ADM1",
		"countryCode": "BG",
		"ADM1": "61",
		"ADM2": "",
		"ADM3": "",
		"ADM4": "",
		"population": 471252,
		"parentId": "732800"
	},
	{
		"id": "726419",
		"name": "Oblast Dobrich",
		"latitude": 43.68333,
		"longitude": 27.9,
		"featureClass": "A",
		"featureCode": "ADM1",
		"countryCode": "BG",
		"ADM1": "40",
		"ADM2": "",
		"ADM3": "",
		"ADM4": "",
		"population": 173831,
		"parentId": "732800"
	},
	{
		"id": "727012",
		"name": "Sofia",
		"latitude": 42.66667,
		"longitude": 23.8,
		"featureClass": "A",
		"featureCode": "ADM1",
		"countryCode": "BG",
		"ADM1": "58",
		"ADM2": "",
		"ADM3": "",
		"ADM4": "",
		"population": 229041,
		"parentId": "732800"
	},
	{
		"id": "727524",
		"name": "Oblast Ruse",
		"latitude": 43.7,
		"longitude": 26,
		"featureClass": "A",
		"featureCode": "ADM1",
		"countryCode": "BG",
		"ADM1": "53",
		"ADM2": "",
		"ADM3": "",
		"ADM4": "",
		"population": 218556,
		"parentId": "732800"
	},
	{
		"id": "728194",
		"name": "Plovdiv",
		"latitude": 42.26667,
		"longitude": 24.83333,
		"featureClass": "A",
		"featureCode": "ADM1",
		"countryCode": "BG",
		"ADM1": "51",
		"ADM2": "",
		"ADM3": "",
		"ADM4": "",
		"population": 668334,
		"parentId": "732800"
	},
	{
		"id": "728204",
		"name": "Oblast Pleven",
		"latitude": 43.5,
		"longitude": 24.63333,
		"featureClass": "A",
		"featureCode": "ADM1",
		"countryCode": "BG",
		"ADM1": "50",
		"ADM2": "",
		"ADM3": "",
		"ADM4": "",
		"population": 240380,
		"parentId": "732800"
	},
	{
		"id": "728331",
		"name": "Pernik",
		"latitude": 42.63333,
		"longitude": 22.88333,
		"featureClass": "A",
		"featureCode": "ADM1",
		"countryCode": "BG",
		"ADM1": "49",
		"ADM2": "",
		"ADM3": "",
		"ADM4": "",
		"population": 120880,
		"parentId": "732800"
	},
	{
		"id": "728379",
		"name": "Pazardzhik",
		"latitude": 42.08333,
		"longitude": 24.16667,
		"featureClass": "A",
		"featureCode": "ADM1",
		"countryCode": "BG",
		"ADM1": "48",
		"ADM2": "",
		"ADM3": "",
		"ADM4": "",
		"population": 255479,
		"parentId": "732800"
	},
	{
		"id": "729560",
		"name": "Lovech",
		"latitude": 43.03333,
		"longitude": 24.56667,
		"featureClass": "A",
		"featureCode": "ADM1",
		"countryCode": "BG",
		"ADM1": "46",
		"ADM2": "",
		"ADM3": "",
		"ADM4": "",
		"population": 124873,
		"parentId": "732800"
	},
	{
		"id": "730436",
		"name": "Haskovo",
		"latitude": 41.83333,
		"longitude": 25.91667,
		"featureClass": "A",
		"featureCode": "ADM1",
		"countryCode": "BG",
		"ADM1": "43",
		"ADM2": "",
		"ADM3": "",
		"ADM4": "",
		"population": 228141,
		"parentId": "732800"
	},
	{
		"id": "731061",
		"name": "Sofia-Grad",
		"latitude": 42.66667,
		"longitude": 23.38333,
		"featureClass": "A",
		"featureCode": "ADM1",
		"countryCode": "BG",
		"ADM1": "42",
		"ADM2": "",
		"ADM3": "",
		"ADM4": "",
		"population": 1328120,
		"parentId": "732800"
	},
	{
		"id": "732771",
		"name": "Burgas",
		"latitude": 42.53333,
		"longitude": 27.23333,
		"featureClass": "A",
		"featureCode": "ADM1",
		"countryCode": "BG",
		"ADM1": "39",
		"ADM2": "",
		"ADM3": "",
		"ADM4": "",
		"population": 410331,
		"parentId": "732800"
	},
	{
		"id": "733192",
		"name": "Blagoevgrad",
		"latitude": 41.73333,
		"longitude": 23.45,
		"featureClass": "A",
		"featureCode": "ADM1",
		"countryCode": "BG",
		"ADM1": "38",
		"ADM2": "",
		"ADM3": "",
		"ADM4": "",
		"population": 305123,
		"parentId": "732800"
	},
	{
		"id": "864552",
		"name": "Gabrovo",
		"latitude": 42.95,
		"longitude": 25.25,
		"featureClass": "A",
		"featureCode": "ADM1",
		"countryCode": "BG",
		"ADM1": "41",
		"ADM2": "",
		"ADM3": "",
		"ADM4": "",
		"population": 108404,
		"parentId": "732800"
	},
	{
		"id": "864553",
		"name": "Oblast Kardzhali",
		"latitude": 41.53333,
		"longitude": 25.43333,
		"featureClass": "A",
		"featureCode": "ADM1",
		"countryCode": "BG",
		"ADM1": "44",
		"ADM2": "",
		"ADM3": "",
		"ADM4": "",
		"population": 152873,
		"parentId": "732800"
	},
	{
		"id": "864554",
		"name": "Oblast Kyustendil",
		"latitude": 42.25,
		"longitude": 22.9,
		"featureClass": "A",
		"featureCode": "ADM1",
		"countryCode": "BG",
		"ADM1": "45",
		"ADM2": "",
		"ADM3": "",
		"ADM4": "",
		"population": 119041,
		"parentId": "732800"
	},
	{
		"id": "864555",
		"name": "Oblast Shumen",
		"latitude": 43.33333,
		"longitude": 27,
		"featureClass": "A",
		"featureCode": "ADM1",
		"countryCode": "BG",
		"ADM1": "54",
		"ADM2": "",
		"ADM3": "",
		"ADM4": "",
		"population": 172355,
		"parentId": "732800"
	},
	{
		"id": "864556",
		"name": "Oblast Silistra",
		"latitude": 43.93333,
		"longitude": 27.05,
		"featureClass": "A",
		"featureCode": "ADM1",
		"countryCode": "BG",
		"ADM1": "55",
		"ADM2": "",
		"ADM3": "",
		"ADM4": "",
		"population": 109271,
		"parentId": "732800"
	},
	{
		"id": "864557",
		"name": "Oblast Sliven",
		"latitude": 42.66667,
		"longitude": 26.28333,
		"featureClass": "A",
		"featureCode": "ADM1",
		"countryCode": "BG",
		"ADM1": "56",
		"ADM2": "",
		"ADM3": "",
		"ADM4": "",
		"population": 186495,
		"parentId": "732800"
	},
	{
		"id": "864558",
		"name": "Oblast Smolyan",
		"latitude": 41.61667,
		"longitude": 24.65,
		"featureClass": "A",
		"featureCode": "ADM1",
		"countryCode": "BG",
		"ADM1": "57",
		"ADM2": "",
		"ADM3": "",
		"ADM4": "",
		"population": 105421,
		"parentId": "732800"
	},
	{
		"id": "864559",
		"name": "Oblast Stara Zagora",
		"latitude": 42.45,
		"longitude": 25.56667,
		"featureClass": "A",
		"featureCode": "ADM1",
		"countryCode": "BG",
		"ADM1": "59",
		"ADM2": "",
		"ADM3": "",
		"ADM4": "",
		"population": 316356,
		"parentId": "732800"
	},
	{
		"id": "864560",
		"name": "Oblast Targovishte",
		"latitude": 43.26667,
		"longitude": 26.38333,
		"featureClass": "A",
		"featureCode": "ADM1",
		"countryCode": "BG",
		"ADM1": "60",
		"ADM2": "",
		"ADM3": "",
		"ADM4": "",
		"population": 111597,
		"parentId": "732800"
	},
	{
		"id": "864561",
		"name": "Oblast Veliko Tarnovo",
		"latitude": 43.23333,
		"longitude": 25.65,
		"featureClass": "A",
		"featureCode": "ADM1",
		"countryCode": "BG",
		"ADM1": "62",
		"ADM2": "",
		"ADM3": "",
		"ADM4": "",
		"population": 235708,
		"parentId": "732800"
	},
	{
		"id": "864562",
		"name": "Oblast Vidin",
		"latitude": 43.81667,
		"longitude": 22.71667,
		"featureClass": "A",
		"featureCode": "ADM1",
		"countryCode": "BG",
		"ADM1": "63",
		"ADM2": "",
		"ADM3": "",
		"ADM4": "",
		"population": 84865,
		"parentId": "732800"
	},
	{
		"id": "864563",
		"name": "Oblast Yambol",
		"latitude": 42.33333,
		"longitude": 26.63333,
		"featureClass": "A",
		"featureCode": "ADM1",
		"countryCode": "BG",
		"ADM1": "65",
		"ADM2": "",
		"ADM3": "",
		"ADM4": "",
		"population": 118897,
		"parentId": "732800"
	},
	{
		"id": "290333",
		"name": "Muharraq Governorate",
		"latitude": 26.25,
		"longitude": 50.61667,
		"featureClass": "A",
		"featureCode": "ADM1",
		"countryCode": "BH",
		"ADM1": "15",
		"ADM2": "",
		"ADM3": "",
		"ADM4": "",
		"population": 189114,
		"parentId": "290291"
	},
	{
		"id": "7090954",
		"name": "Capital Governorate",
		"latitude": 26.21667,
		"longitude": 50.58333,
		"featureClass": "A",
		"featureCode": "ADM1",
		"countryCode": "BH",
		"ADM1": "16",
		"ADM2": "",
		"ADM3": "",
		"ADM4": "",
		"population": 534939,
		"parentId": "290291"
	},
	{
		"id": "7090972",
		"name": "Southern Governorate",
		"latitude": 25.86667,
		"longitude": 50.58333,
		"featureClass": "A",
		"featureCode": "ADM1",
		"countryCode": "BH",
		"ADM1": "17",
		"ADM2": "",
		"ADM3": "",
		"ADM4": "",
		"population": 91450,
		"parentId": "290291"
	},
	{
		"id": "7090974",
		"name": "Northern Governorate",
		"latitude": 26.15,
		"longitude": 50.46667,
		"featureClass": "A",
		"featureCode": "ADM1",
		"countryCode": "BH",
		"ADM1": "19",
		"ADM2": "",
		"ADM3": "",
		"ADM4": "",
		"population": 276949,
		"parentId": "290291"
	},
	{
		"id": "422233",
		"name": "Makamba Province",
		"latitude": -4.16667,
		"longitude": 29.75278,
		"featureClass": "A",
		"featureCode": "ADM1",
		"countryCode": "BI",
		"ADM1": "17",
		"ADM2": "",
		"ADM3": "",
		"ADM4": "",
		"population": 499682,
		"parentId": "433561"
	},
	{
		"id": "423327",
		"name": "Bururi Province",
		"latitude": -3.85,
		"longitude": 29.63333,
		"featureClass": "A",
		"featureCode": "ADM1",
		"countryCode": "BI",
		"ADM1": "10",
		"ADM2": "",
		"ADM3": "",
		"ADM4": "",
		"population": 493490,
		"parentId": "433561"
	},
	{
		"id": "425550",
		"name": "Muramvya Province",
		"latitude": -3.25,
		"longitude": 29.66667,
		"featureClass": "A",
		"featureCode": "ADM1",
		"countryCode": "BI",
		"ADM1": "22",
		"ADM2": "",
		"ADM3": "",
		"ADM4": "",
		"population": 303482,
		"parentId": "433561"
	},
	{
		"id": "426271",
		"name": "Gitega Province",
		"latitude": -3.5,
		"longitude": 29.95,
		"featureClass": "A",
		"featureCode": "ADM1",
		"countryCode": "BI",
		"ADM1": "13",
		"ADM2": "",
		"ADM3": "",
		"ADM4": "",
		"population": 675016,
		"parentId": "433561"
	},
	{
		"id": "426699",
		"name": "Ruyigi Province",
		"latitude": -3.45,
		"longitude": 30.31667,
		"featureClass": "A",
		"featureCode": "ADM1",
		"countryCode": "BI",
		"ADM1": "21",
		"ADM2": "",
		"ADM3": "",
		"ADM4": "",
		"population": 369797,
		"parentId": "433561"
	},
	{
		"id": "427700",
		"name": "Cankuzo Province",
		"latitude": -3.13333,
		"longitude": 30.58333,
		"featureClass": "A",
		"featureCode": "ADM1",
		"countryCode": "BI",
		"ADM1": "11",
		"ADM2": "",
		"ADM3": "",
		"ADM4": "",
		"population": 202283,
		"parentId": "433561"
	},
	{
		"id": "428218",
		"name": "Karuzi Province",
		"latitude": -3.125,
		"longitude": 30.13333,
		"featureClass": "A",
		"featureCode": "ADM1",
		"countryCode": "BI",
		"ADM1": "14",
		"ADM2": "",
		"ADM3": "",
		"ADM4": "",
		"population": 479683,
		"parentId": "433561"
	},
	{
		"id": "428514",
		"name": "Bubanza Province",
		"latitude": -3.11667,
		"longitude": 29.4,
		"featureClass": "A",
		"featureCode": "ADM1",
		"countryCode": "BI",
		"ADM1": "09",
		"ADM2": "",
		"ADM3": "",
		"ADM4": "",
		"population": 354427,
		"parentId": "433561"
	},
	{
		"id": "430020",
		"name": "Cibitoke Province",
		"latitude": -2.88333,
		"longitude": 29.25,
		"featureClass": "A",
		"featureCode": "ADM1",
		"countryCode": "BI",
		"ADM1": "12",
		"ADM2": "",
		"ADM3": "",
		"ADM4": "",
		"population": 490949,
		"parentId": "433561"
	},
	{
		"id": "430567",
		"name": "Ngozi Province",
		"latitude": -2.875,
		"longitude": 29.925,
		"featureClass": "A",
		"featureCode": "ADM1",
		"countryCode": "BI",
		"ADM1": "19",
		"ADM2": "",
		"ADM3": "",
		"ADM4": "",
		"population": 719158,
		"parentId": "433561"
	},
	{
		"id": "430951",
		"name": "Kayanza Province",
		"latitude": -3.06667,
		"longitude": 29.66667,
		"featureClass": "A",
		"featureCode": "ADM1",
		"countryCode": "BI",
		"ADM1": "15",
		"ADM2": "",
		"ADM3": "",
		"ADM4": "",
		"population": 486917,
		"parentId": "433561"
	},
	{
		"id": "431747",
		"name": "Muyinga Province",
		"latitude": -2.83333,
		"longitude": 30.33333,
		"featureClass": "A",
		"featureCode": "ADM1",
		"countryCode": "BI",
		"ADM1": "18",
		"ADM2": "",
		"ADM3": "",
		"ADM4": "",
		"population": 595947,
		"parentId": "433561"
	},
	{
		"id": "432455",
		"name": "Kirundo Province",
		"latitude": -2.58333,
		"longitude": 30.16667,
		"featureClass": "A",
		"featureCode": "ADM1",
		"countryCode": "BI",
		"ADM1": "16",
		"ADM2": "",
		"ADM3": "",
		"ADM4": "",
		"population": 602089,
		"parentId": "433561"
	},
	{
		"id": "434147",
		"name": "Rutana Province",
		"latitude": -3.86667,
		"longitude": 30.1,
		"featureClass": "A",
		"featureCode": "ADM1",
		"countryCode": "BI",
		"ADM1": "20",
		"ADM2": "",
		"ADM3": "",
		"ADM4": "",
		"population": 293572,
		"parentId": "433561"
	},
	{
		"id": "434386",
		"name": "Province de Mwaro",
		"latitude": -3.5,
		"longitude": 29.66667,
		"featureClass": "A",
		"featureCode": "ADM1",
		"countryCode": "BI",
		"ADM1": "23",
		"ADM2": "",
		"ADM3": "",
		"ADM4": "",
		"population": 274890,
		"parentId": "433561"
	},
	{
		"id": "7303939",
		"name": "Bujumbura Mairie Province",
		"latitude": -3.3802,
		"longitude": 29.3547,
		"featureClass": "A",
		"featureCode": "ADM1",
		"countryCode": "BI",
		"ADM1": "24",
		"ADM2": "",
		"ADM3": "",
		"ADM4": "",
		"population": 800000,
		"parentId": "433561"
	},
	{
		"id": "7303940",
		"name": "Bujumbura Rural Province",
		"latitude": -3.4627,
		"longitude": 29.46259,
		"featureClass": "A",
		"featureCode": "ADM1",
		"countryCode": "BI",
		"ADM1": "25",
		"ADM2": "",
		"ADM3": "",
		"ADM4": "",
		"population": 555933,
		"parentId": "433561"
	},
	{
		"id": "11184798",
		"name": "Rumonge Province",
		"latitude": -3.96478,
		"longitude": 29.44765,
		"featureClass": "A",
		"featureCode": "ADM1",
		"countryCode": "BI",
		"ADM1": "26",
		"ADM2": "",
		"ADM3": "",
		"ADM4": "",
		"population": 35000,
		"parentId": "433561"
	},
	{
		"id": "2390719",
		"name": "Zou Department",
		"latitude": 7.25,
		"longitude": 2.16667,
		"featureClass": "A",
		"featureCode": "ADM1",
		"countryCode": "BJ",
		"ADM1": "18",
		"ADM2": "",
		"ADM3": "",
		"ADM4": "",
		"population": 628684,
		"parentId": "2395170"
	},
	{
		"id": "2392325",
		"name": "Département de l’Ouémé",
		"latitude": 6.61667,
		"longitude": 2.51667,
		"featureClass": "A",
		"featureCode": "ADM1",
		"countryCode": "BJ",
		"ADM1": "16",
		"ADM2": "",
		"ADM3": "",
		"ADM4": "",
		"population": 773421,
		"parentId": "2395170"
	},
	{
		"id": "2392716",
		"name": "Mono",
		"latitude": 6.58333,
		"longitude": 1.83333,
		"featureClass": "A",
		"featureCode": "ADM1",
		"countryCode": "BJ",
		"ADM1": "15",
		"ADM2": "",
		"ADM3": "",
		"ADM4": "",
		"population": 380078,
		"parentId": "2395170"
	},
	{
		"id": "2394992",
		"name": "Borgou Department",
		"latitude": 9.75,
		"longitude": 2.75,
		"featureClass": "A",
		"featureCode": "ADM1",
		"countryCode": "BJ",
		"ADM1": "10",
		"ADM2": "",
		"ADM3": "",
		"ADM4": "",
		"population": 802503,
		"parentId": "2395170"
	},
	{
		"id": "2395504",
		"name": "Atlantique Department",
		"latitude": 6.66667,
		"longitude": 2.25,
		"featureClass": "A",
		"featureCode": "ADM1",
		"countryCode": "BJ",
		"ADM1": "09",
		"ADM2": "",
		"ADM3": "",
		"ADM4": "",
		"population": 896901,
		"parentId": "2395170"
	},
	{
		"id": "2395524",
		"name": "Atakora Department",
		"latitude": 10.75,
		"longitude": 1.66667,
		"featureClass": "A",
		"featureCode": "ADM1",
		"countryCode": "BJ",
		"ADM1": "08",
		"ADM2": "",
		"ADM3": "",
		"ADM4": "",
		"population": 586734,
		"parentId": "2395170"
	},
	{
		"id": "2597271",
		"name": "Alibori",
		"latitude": 11.33333,
		"longitude": 2.91667,
		"featureClass": "A",
		"featureCode": "ADM1",
		"countryCode": "BJ",
		"ADM1": "07",
		"ADM2": "",
		"ADM3": "",
		"ADM4": "",
		"population": 576251,
		"parentId": "2395170"
	},
	{
		"id": "2597272",
		"name": "Collines Department",
		"latitude": 8,
		"longitude": 2.16667,
		"featureClass": "A",
		"featureCode": "ADM1",
		"countryCode": "BJ",
		"ADM1": "11",
		"ADM2": "",
		"ADM3": "",
		"ADM4": "",
		"population": 602066,
		"parentId": "2395170"
	},
	{
		"id": "2597273",
		"name": "Kouffo Department",
		"latitude": 7.08333,
		"longitude": 1.83333,
		"featureClass": "A",
		"featureCode": "ADM1",
		"countryCode": "BJ",
		"ADM1": "12",
		"ADM2": "",
		"ADM3": "",
		"ADM4": "",
		"population": 560182,
		"parentId": "2395170"
	},
	{
		"id": "2597274",
		"name": "Donga",
		"latitude": 9.33333,
		"longitude": 1.78333,
		"featureClass": "A",
		"featureCode": "ADM1",
		"countryCode": "BJ",
		"ADM1": "13",
		"ADM2": "",
		"ADM3": "",
		"ADM4": "",
		"population": 384151,
		"parentId": "2395170"
	},
	{
		"id": "2597275",
		"name": "Littoral",
		"latitude": 6.36667,
		"longitude": 2.41667,
		"featureClass": "A",
		"featureCode": "ADM1",
		"countryCode": "BJ",
		"ADM1": "14",
		"ADM2": "",
		"ADM3": "",
		"ADM4": "",
		"population": 690584,
		"parentId": "2395170"
	},
	{
		"id": "2597277",
		"name": "Plateau Department",
		"latitude": 7.16667,
		"longitude": 2.58333,
		"featureClass": "A",
		"featureCode": "ADM1",
		"countryCode": "BJ",
		"ADM1": "17",
		"ADM2": "",
		"ADM3": "",
		"ADM4": "",
		"population": 435623,
		"parentId": "2395170"
	},
	{
		"id": "1820068",
		"name": "Tutong",
		"latitude": 4.63333,
		"longitude": 114.71667,
		"featureClass": "A",
		"featureCode": "ADM1",
		"countryCode": "BN",
		"ADM1": "04",
		"ADM2": "",
		"ADM3": "",
		"ADM4": "",
		"population": 51500,
		"parentId": "1820814"
	},
	{
		"id": "1820106",
		"name": "Temburong",
		"latitude": 4.58333,
		"longitude": 115.16667,
		"featureClass": "A",
		"featureCode": "ADM1",
		"countryCode": "BN",
		"ADM1": "03",
		"ADM2": "",
		"ADM3": "",
		"ADM4": "",
		"population": 11200,
		"parentId": "1820814"
	},
	{
		"id": "1820818",
		"name": "Daerah Brunei dan Muara",
		"latitude": 4.91667,
		"longitude": 114.91667,
		"featureClass": "A",
		"featureCode": "ADM1",
		"countryCode": "BN",
		"ADM1": "02",
		"ADM2": "",
		"ADM3": "",
		"ADM4": "",
		"population": 316100,
		"parentId": "1820814"
	},
	{
		"id": "1820869",
		"name": "Belait",
		"latitude": 4.31667,
		"longitude": 114.58333,
		"featureClass": "A",
		"featureCode": "ADM1",
		"countryCode": "BN",
		"ADM1": "01",
		"ADM2": "",
		"ADM3": "",
		"ADM4": "",
		"population": 74800,
		"parentId": "1820814"
	},
	{
		"id": "3903319",
		"name": "Departamento de Tarija",
		"latitude": -21.5,
		"longitude": -64,
		"featureClass": "A",
		"featureCode": "ADM1",
		"countryCode": "BO",
		"ADM1": "09",
		"ADM2": "",
		"ADM3": "",
		"ADM4": "",
		"population": 583300,
		"parentId": "3923057"
	},
	{
		"id": "3904907",
		"name": "Departamento de Santa Cruz",
		"latitude": -17.5,
		"longitude": -61.5,
		"featureClass": "A",
		"featureCode": "ADM1",
		"countryCode": "BO",
		"ADM1": "08",
		"ADM2": "",
		"ADM3": "",
		"ADM4": "",
		"population": 3370100,
		"parentId": "3923057"
	},
	{
		"id": "3907580",
		"name": "Departamento de Potosí",
		"latitude": -20.66667,
		"longitude": -67,
		"featureClass": "A",
		"featureCode": "ADM1",
		"countryCode": "BO",
		"ADM1": "07",
		"ADM2": "",
		"ADM3": "",
		"ADM4": "",
		"population": 901600,
		"parentId": "3923057"
	},
	{
		"id": "3908600",
		"name": "Departamento de Pando",
		"latitude": -11.33333,
		"longitude": -67.66667,
		"featureClass": "A",
		"featureCode": "ADM1",
		"countryCode": "BO",
		"ADM1": "06",
		"ADM2": "",
		"ADM3": "",
		"ADM4": "",
		"population": 154400,
		"parentId": "3923057"
	},
	{
		"id": "3909233",
		"name": "Departamento de Oruro",
		"latitude": -18.66667,
		"longitude": -67.5,
		"featureClass": "A",
		"featureCode": "ADM1",
		"countryCode": "BO",
		"ADM1": "05",
		"ADM2": "",
		"ADM3": "",
		"ADM4": "",
		"population": 488584,
		"parentId": "3923057"
	},
	{
		"id": "3911924",
		"name": "Departamento de La Paz",
		"latitude": -15.5,
		"longitude": -68,
		"featureClass": "A",
		"featureCode": "ADM1",
		"countryCode": "BO",
		"ADM1": "04",
		"ADM2": "",
		"ADM3": "",
		"ADM4": "",
		"population": 2603388,
		"parentId": "3923057"
	},
	{
		"id": "3919966",
		"name": "Departamento de Cochabamba",
		"latitude": -17.5,
		"longitude": -65.66667,
		"featureClass": "A",
		"featureCode": "ADM1",
		"countryCode": "BO",
		"ADM1": "02",
		"ADM2": "",
		"ADM3": "",
		"ADM4": "",
		"population": 1639857,
		"parentId": "3923057"
	},
	{
		"id": "3920177",
		"name": "Departamento de Chuquisaca",
		"latitude": -20,
		"longitude": -64.33333,
		"featureClass": "A",
		"featureCode": "ADM1",
		"countryCode": "BO",
		"ADM1": "01",
		"ADM2": "",
		"ADM3": "",
		"ADM4": "",
		"population": 637000,
		"parentId": "3923057"
	},
	{
		"id": "3923172",
		"name": "El Beni",
		"latitude": -14,
		"longitude": -65.5,
		"featureClass": "A",
		"featureCode": "ADM1",
		"countryCode": "BO",
		"ADM1": "03",
		"ADM2": "",
		"ADM3": "",
		"ADM4": "",
		"population": 422008,
		"parentId": "3923057"
	},
	{
		"id": "3390290",
		"name": "Rio Grande do Norte",
		"latitude": -5.75,
		"longitude": -36.5,
		"featureClass": "A",
		"featureCode": "ADM1",
		"countryCode": "BR",
		"ADM1": "22",
		"ADM2": "",
		"ADM3": "",
		"ADM4": "",
		"population": 3569675,
		"parentId": "3469034"
	},
	{
		"id": "3392213",
		"name": "Piauí",
		"latitude": -7.25,
		"longitude": -42.33333,
		"featureClass": "A",
		"featureCode": "ADM1",
		"countryCode": "BR",
		"ADM1": "20",
		"ADM2": "",
		"ADM3": "",
		"ADM4": "",
		"population": 3273227,
		"parentId": "3469034"
	},
	{
		"id": "3392268",
		"name": "Pernambuco",
		"latitude": -8.33333,
		"longitude": -37.75,
		"featureClass": "A",
		"featureCode": "ADM1",
		"countryCode": "BR",
		"ADM1": "30",
		"ADM2": "",
		"ADM3": "",
		"ADM4": "",
		"population": 9616121,
		"parentId": "3469034"
	},
	{
		"id": "3393098",
		"name": "Paraíba",
		"latitude": -7.25,
		"longitude": -36.5,
		"featureClass": "A",
		"featureCode": "ADM1",
		"countryCode": "BR",
		"ADM1": "17",
		"ADM2": "",
		"ADM3": "",
		"ADM4": "",
		"population": 4039277,
		"parentId": "3469034"
	},
	{
		"id": "3393129",
		"name": "Pará",
		"latitude": -4,
		"longitude": -53,
		"featureClass": "A",
		"featureCode": "ADM1",
		"countryCode": "BR",
		"ADM1": "16",
		"ADM2": "",
		"ADM3": "",
		"ADM4": "",
		"population": 8602865,
		"parentId": "3469034"
	},
	{
		"id": "3395443",
		"name": "Maranhão",
		"latitude": -5,
		"longitude": -45,
		"featureClass": "A",
		"featureCode": "ADM1",
		"countryCode": "BR",
		"ADM1": "13",
		"ADM2": "",
		"ADM3": "",
		"ADM4": "",
		"population": 7075181,
		"parentId": "3469034"
	},
	{
		"id": "3402362",
		"name": "Ceará",
		"latitude": -5,
		"longitude": -39.5,
		"featureClass": "A",
		"featureCode": "ADM1",
		"countryCode": "BR",
		"ADM1": "06",
		"ADM2": "",
		"ADM3": "",
		"ADM4": "",
		"population": 9132078,
		"parentId": "3469034"
	},
	{
		"id": "3407762",
		"name": "Amapá",
		"latitude": 1,
		"longitude": -52,
		"featureClass": "A",
		"featureCode": "ADM1",
		"countryCode": "BR",
		"ADM1": "03",
		"ADM2": "",
		"ADM3": "",
		"ADM4": "",
		"population": 845731,
		"parentId": "3469034"
	},
	{
		"id": "3408096",
		"name": "Alagoas",
		"latitude": -9.58333,
		"longitude": -36.41667,
		"featureClass": "A",
		"featureCode": "ADM1",
		"countryCode": "BR",
		"ADM1": "02",
		"ADM2": "",
		"ADM3": "",
		"ADM4": "",
		"population": 3337357,
		"parentId": "3469034"
	},
	{
		"id": "3447799",
		"name": "Sergipe",
		"latitude": -10.5,
		"longitude": -37.33333,
		"featureClass": "A",
		"featureCode": "ADM1",
		"countryCode": "BR",
		"ADM1": "28",
		"ADM2": "",
		"ADM3": "",
		"ADM4": "",
		"population": 2298696,
		"parentId": "3469034"
	},
	{
		"id": "3448433",
		"name": "São Paulo",
		"latitude": -22,
		"longitude": -49,
		"featureClass": "A",
		"featureCode": "ADM1",
		"countryCode": "BR",
		"ADM1": "27",
		"ADM2": "",
		"ADM3": "",
		"ADM4": "",
		"population": 46004000,
		"parentId": "3469034"
	},
	{
		"id": "3450387",
		"name": "Santa Catarina",
		"latitude": -27,
		"longitude": -50,
		"featureClass": "A",
		"featureCode": "ADM1",
		"countryCode": "BR",
		"ADM1": "26",
		"ADM2": "",
		"ADM3": "",
		"ADM4": "",
		"population": 7252502,
		"parentId": "3469034"
	},
	{
		"id": "3451133",
		"name": "Rio Grande do Sul",
		"latitude": -30,
		"longitude": -53.5,
		"featureClass": "A",
		"featureCode": "ADM1",
		"countryCode": "BR",
		"ADM1": "23",
		"ADM2": "",
		"ADM3": "",
		"ADM4": "",
		"population": 11422973,
		"parentId": "3469034"
	},
	{
		"id": "3451189",
		"name": "Rio de Janeiro",
		"latitude": -22.25,
		"longitude": -42.5,
		"featureClass": "A",
		"featureCode": "ADM1",
		"countryCode": "BR",
		"ADM1": "21",
		"ADM2": "",
		"ADM3": "",
		"ADM4": "",
		"population": 17463349,
		"parentId": "3469034"
	},
	{
		"id": "3455077",
		"name": "Paraná",
		"latitude": -24.5,
		"longitude": -51.33333,
		"featureClass": "A",
		"featureCode": "ADM1",
		"countryCode": "BR",
		"ADM1": "18",
		"ADM2": "",
		"ADM3": "",
		"ADM4": "",
		"population": 11597484,
		"parentId": "3469034"
	},
	{
		"id": "3457153",
		"name": "Minas Gerais",
		"latitude": -18,
		"longitude": -44,
		"featureClass": "A",
		"featureCode": "ADM1",
		"countryCode": "BR",
		"ADM1": "15",
		"ADM2": "",
		"ADM3": "",
		"ADM4": "",
		"population": 21411923,
		"parentId": "3469034"
	},
	{
		"id": "3457415",
		"name": "Mato Grosso do Sul",
		"latitude": -20.5,
		"longitude": -55,
		"featureClass": "A",
		"featureCode": "ADM1",
		"countryCode": "BR",
		"ADM1": "11",
		"ADM2": "",
		"ADM3": "",
		"ADM4": "",
		"population": 2778986,
		"parentId": "3469034"
	},
	{
		"id": "3457419",
		"name": "Mato Grosso",
		"latitude": -13,
		"longitude": -56,
		"featureClass": "A",
		"featureCode": "ADM1",
		"countryCode": "BR",
		"ADM1": "14",
		"ADM2": "",
		"ADM3": "",
		"ADM4": "",
		"population": 3484466,
		"parentId": "3469034"
	},
	{
		"id": "3462372",
		"name": "Goiás",
		"latitude": -15.58071,
		"longitude": -49.63623,
		"featureClass": "A",
		"featureCode": "ADM1",
		"countryCode": "BR",
		"ADM1": "29",
		"ADM2": "",
		"ADM3": "",
		"ADM4": "",
		"population": 7018354,
		"parentId": "3469034"
	},
	{
		"id": "3463504",
		"name": "Federal District",
		"latitude": -15.75,
		"longitude": -47.75,
		"featureClass": "A",
		"featureCode": "ADM1",
		"countryCode": "BR",
		"ADM1": "07",
		"ADM2": "",
		"ADM3": "",
		"ADM4": "",
		"population": 2648532,
		"parentId": "3469034"
	},
	{
		"id": "3463930",
		"name": "Espírito Santo",
		"latitude": -20,
		"longitude": -40.75,
		"featureClass": "A",
		"featureCode": "ADM1",
		"countryCode": "BR",
		"ADM1": "08",
		"ADM2": "",
		"ADM3": "",
		"ADM4": "",
		"population": 4018650,
		"parentId": "3469034"
	},
	{
		"id": "3471168",
		"name": "Bahia",
		"latitude": -12,
		"longitude": -42,
		"featureClass": "A",
		"featureCode": "ADM1",
		"countryCode": "BR",
		"ADM1": "05",
		"ADM2": "",
		"ADM3": "",
		"ADM4": "",
		"population": 14930634,
		"parentId": "3469034"
	},
	{
		"id": "3474575",
		"name": "Tocantins",
		"latitude": -10.5,
		"longitude": -48,
		"featureClass": "A",
		"featureCode": "ADM1",
		"countryCode": "BR",
		"ADM1": "31",
		"ADM2": "",
		"ADM3": "",
		"ADM4": "",
		"population": 1572866,
		"parentId": "3469034"
	},
	{
		"id": "3662560",
		"name": "Roraima",
		"latitude": 2.25,
		"longitude": -61.25,
		"featureClass": "A",
		"featureCode": "ADM1",
		"countryCode": "BR",
		"ADM1": "25",
		"ADM2": "",
		"ADM3": "",
		"ADM4": "",
		"population": 652713,
		"parentId": "3469034"
	},
	{
		"id": "3665361",
		"name": "Amazonas",
		"latitude": -3.75,
		"longitude": -64.5,
		"featureClass": "A",
		"featureCode": "ADM1",
		"countryCode": "BR",
		"ADM1": "04",
		"ADM2": "",
		"ADM3": "",
		"ADM4": "",
		"population": 4207714,
		"parentId": "3469034"
	},
	{
		"id": "3665474",
		"name": "Acre",
		"latitude": -9,
		"longitude": -70,
		"featureClass": "A",
		"featureCode": "ADM1",
		"countryCode": "BR",
		"ADM1": "01",
		"ADM2": "",
		"ADM3": "",
		"ADM4": "",
		"population": 906876,
		"parentId": "3469034"
	},
	{
		"id": "3924825",
		"name": "Rondônia",
		"latitude": -11,
		"longitude": -63,
		"featureClass": "A",
		"featureCode": "ADM1",
		"countryCode": "BR",
		"ADM1": "24",
		"ADM2": "",
		"ADM3": "",
		"ADM4": "",
		"population": 1815278,
		"parentId": "3469034"
	},
	{
		"id": "3571493",
		"name": "San Salvador District",
		"latitude": 24.03667,
		"longitude": -74.49306,
		"featureClass": "A",
		"featureCode": "ADM1",
		"countryCode": "BS",
		"ADM1": "35",
		"ADM2": "",
		"ADM3": "",
		"ADM4": "",
		"population": 1293,
		"parentId": "3572887"
	},
	{
		"id": "3571629",
		"name": "Ragged Island District",
		"latitude": 22.37083,
		"longitude": -75.815,
		"featureClass": "A",
		"featureCode": "ADM1",
		"countryCode": "BS",
		"ADM1": "18",
		"ADM2": "",
		"ADM3": "",
		"ADM4": "",
		"population": 70,
		"parentId": "3572887"
	},
	{
		"id": "3571809",
		"name": "Berry Islands District",
		"latitude": 25.72111,
		"longitude": -77.83139,
		"featureClass": "A",
		"featureCode": "ADM1",
		"countryCode": "BS",
		"ADM1": "32",
		"ADM2": "",
		"ADM3": "",
		"ADM4": "",
		"population": 742,
		"parentId": "3572887"
	},
	{
		"id": "3571815",
		"name": "New Providence District",
		"latitude": 25.03333,
		"longitude": -77.28333,
		"featureClass": "A",
		"featureCode": "ADM1",
		"countryCode": "BS",
		"ADM1": "23",
		"ADM2": "",
		"ADM3": "",
		"ADM4": "",
		"population": 228334,
		"parentId": "3572887"
	},
	{
		"id": "3571894",
		"name": "Mayaguana District",
		"latitude": 22.38417,
		"longitude": -72.95389,
		"featureClass": "A",
		"featureCode": "ADM1",
		"countryCode": "BS",
		"ADM1": "16",
		"ADM2": "",
		"ADM3": "",
		"ADM4": "",
		"population": 251,
		"parentId": "3572887"
	},
	{
		"id": "3572005",
		"name": "Long Island",
		"latitude": 23.21667,
		"longitude": -75.11167,
		"featureClass": "A",
		"featureCode": "ADM1",
		"countryCode": "BS",
		"ADM1": "15",
		"ADM2": "",
		"ADM3": "",
		"ADM4": "",
		"population": 2979,
		"parentId": "3572887"
	},
	{
		"id": "3572154",
		"name": "Inagua",
		"latitude": 21.07694,
		"longitude": -73.31167,
		"featureClass": "A",
		"featureCode": "ADM1",
		"countryCode": "BS",
		"ADM1": "13",
		"ADM2": "",
		"ADM3": "",
		"ADM4": "",
		"population": 913,
		"parentId": "3572887"
	},
	{
		"id": "3572238",
		"name": "Harbour Island District",
		"latitude": 25.48946,
		"longitude": -76.63513,
		"featureClass": "A",
		"featureCode": "ADM1",
		"countryCode": "BS",
		"ADM1": "22",
		"ADM2": "",
		"ADM3": "",
		"ADM4": "",
		"population": 1751,
		"parentId": "3572887"
	},
	{
		"id": "3572374",
		"name": "City of Freeport District",
		"latitude": 26.52028,
		"longitude": -78.64528,
		"featureClass": "A",
		"featureCode": "ADM1",
		"countryCode": "BS",
		"ADM1": "25",
		"ADM2": "",
		"ADM3": "",
		"ADM4": "",
		"population": 26914,
		"parentId": "3572887"
	},
	{
		"id": "3572427",
		"name": "Exuma District",
		"latitude": 23.56944,
		"longitude": -75.88417,
		"featureClass": "A",
		"featureCode": "ADM1",
		"countryCode": "BS",
		"ADM1": "10",
		"ADM2": "",
		"ADM3": "",
		"ADM4": "",
		"population": 6928,
		"parentId": "3572887"
	},
	{
		"id": "3572678",
		"name": "Cat Island",
		"latitude": 24.335,
		"longitude": -75.4575,
		"featureClass": "A",
		"featureCode": "ADM1",
		"countryCode": "BS",
		"ADM1": "06",
		"ADM2": "",
		"ADM3": "",
		"ADM4": "",
		"population": 1606,
		"parentId": "3572887"
	},
	{
		"id": "3572807",
		"name": "Bimini District",
		"latitude": 25.70444,
		"longitude": -79.28889,
		"featureClass": "A",
		"featureCode": "ADM1",
		"countryCode": "BS",
		"ADM1": "05",
		"ADM2": "",
		"ADM3": "",
		"ADM4": "",
		"population": 1735,
		"parentId": "3572887"
	},
	{
		"id": "3572937",
		"name": "Acklins Island District",
		"latitude": 22.43167,
		"longitude": -73.96417,
		"featureClass": "A",
		"featureCode": "ADM1",
		"countryCode": "BS",
		"ADM1": "24",
		"ADM2": "",
		"ADM3": "",
		"ADM4": "",
		"population": 435,
		"parentId": "3572887"
	},